Name,Latitude,Longitude,Address,City,Post Code,Phone,Opening Times,,,,,,,,,,,,,,,
@Worle,51.357014,-2.9288128,58 New Bristol Road,Weston-Super-Mare,BS22 6AQ,0193 4529540,"Mon: 09:00 - 17:00, Tue: 09:00 - 17:00, Wed: 09:00 - 17:00, Thu: 09:00 - 17:00, Fri: 09:00 - 17:00, Sat: 09:00 - 17:00, Sun: 10:00 - 16:00",,,,,,,,,,,,,,,
No 1 Staffordshire Place,52.8064374,-2.1259293,No 1 Staffordshire Place,Stafford,ST16 2LP,0300 1118000,"Mon: 08:00 - 18:00, Tue: 08:00 - 18:00, Wed: 08:00 - 18:00, Thu: 08:00 - 18:00, Fri: 08:00 - 18:00, Sat: Contact for Information, Sun: Contact for Information",,,,,,,,,,,,,,,
33 Love Street,53.386,-1.468,33 Love Street,Sheffield,S3 8NW,0114 2262920,"Mon: 08:45 - 17:15, Tue: 08:45 - 17:15, Wed: 08:45 - 17:15, Thu: 08:45 - 17:15, Fri: 08:45 - 17:15, Sat: Contact for Information, Sun: Contact for Information",,,,,,,,,,,,,,,
360 Beach and Watersports,51.6114132,-3.9654,360 Beach and Watersports Centre,Swansea,SA2 0AY,0179 2655844,"Mon: 08:00 - 22:30, Tue: 08:00 - 22:30, Wed: 08:00 - 22:30, Thu: 08:00 - 22:30, Fri: 08:00 - 22:30, Sat: 08:00 - 22:30, Sun: 08:00 - 21:30",,,,,,,,,,,,,,,
Abbey Lane,53.3218789,-1.4727322,Chesterfield Road,Sheffield,S8 0BR,,"Mon: Contact for Information, Tue: Contact for Information, Wed: Contact for Information, Thu: Contact for Information, Fri: Contact for Information, Sat: Contact for Information, Sun: Contact for Information",,,,,,,,,,,,,,,
Aberdeen Community Health and Care Village,57.1501863,-2.0916757,50 Frederick Street,Aberdeen,AB24 5HY,0122 4655726,"Mon: 08:00 - 18:00, Tue: 08:00 - 18:00, Wed: 08:00 - 18:00, Thu: 08:00 - 18:00, Fri: 08:00 - 18:00, Sat: Contact for Information, Sun: Contact for Information",,,,,,,,,,,,,,,
Aberdeen Royal Infirmary,57.1547411,-2.1384518,"Ground Floor, Phase 2",Aberdeen,AB25 2ZN,0122 4552245,"Mon: 07:00 - 19:00, Tue: 07:00 - 19:00, Wed: 07:00 - 19:00, Thu: 07:00 - 19:00, Fri: 07:00 - 19:00, Sat: 07:00 - 19:00, Sun: 07:00 - 19:00",,,,,,,,,,,,,,,
Acomb Explore Library,53.9537094,-1.1293038,Front Street,York,YO24 3BZ,0190 4552652,"Mon: 09:00 - 21:30, Tue: 09:00 - 21:30, Wed: Contact for Information, Thu: 09:00 - 21:30, Fri: 09:00 - 17:00, Sat: 09:00 - 14:00, Sun: Contact for Information",,,,,,,,,,,,,,,
Addenbrooke's Hospital,52.1747049,0.1414055,Outpatient Department,Cambridge,CB2 0QQ,0122 3245151,"Mon: 08:00 - 17:00, Tue: 08:00 - 17:00, Wed: 08:00 - 17:00, Thu: 08:00 - 17:00, Fri: 08:00 - 17:00, Sat: Contact for Information, Sun: Contact for Information",,,,,,,,,,,,,,,
Adult Community Learning Chelmsford,51.7351675,0.4517395,Beeches Close,Chelmsford,CM1 2SB,0124 5494129,"Mon: Contact for Information, Tue: Contact for Information, Wed: Contact for Information, Thu: Contact for Information, Fri: Contact for Information, Sat: 09:00 - 12:00, Sun: Contact for Information",,,,,,,,,,,,,,,
Airdrie Locality Sports Centre,55.8677307,-3.9757623,92 Hallcraig Street,Airdrie,ML6 6AW,0123 6856000,"Mon: 09:00 - 16:00, Tue: 09:00 - 16:00, Wed: 09:00 - 16:00, Thu: 09:00 - 16:00, Fri: 09:00 - 16:00, Sat: Contact for Information, Sun: Contact for Information",,,,,,,,,,,,,,,
Alice Holt Forest,51.165294,-0.847924,Bucks Horn Oak,Farnham,GU10 4LS,0238 0283141,"Mon: Contact for Information, Tue: Contact for Information, Wed: Contact for Information, Thu: Contact for Information, Fri: Contact for Information, Sat: Contact for Information, Sun: Contact for Information",,,,,,,,,,,,,,,
Andover and District Mencap,51.2032633,-1.4786505,The Wellington Centre,Andover,SP10 2EG,0126 4321840,"Mon: 09:00 - 15:00, Tue: 09:00 - 15:00, Wed: 09:00 - 15:00, Thu: 09:00 - 15:00, Fri: 09:00 - 15:00, Sat: Contact for Information, Sun: Contact for Information",,,,,,,,,,,,,,,
Anglers Country Park - Wintersett,53.6338506,-1.4312723,Haw Park Lane,Wakefield,WF4 2EB,0171 9243039,"Mon: Contact for Information, Tue: Contact for Information, Wed: Contact for Information, Thu: Contact for Information, Fri: Contact for Information, Sat: Contact for Information, Sun: Contact for Information",,,,,,,,,,,,,,,
Apex House,52.6354286,-1.1295547,74-76 Charles Street,Leicester,LE1 1FB,0116 2606503,"Mon: 09:00 - 17:00, Tue: 09:00 - 17:00, Wed: 09:00 - 17:00, Thu: 09:00 - 17:00, Fri: 09:00 - 16:30, Sat: Contact for Information, Sun: Contact for Information",,,,,,,,,,,,,,,
Aqualibrium,55.4266339,-5.6049941,Aqualibrium Kinloch Road,Argyll,PA28 6EG,0158 6551282,"Mon: 07:00 - 21:00, Tue: 08:00 - 21:00, Wed: 07:00 - 21:00, Thu: 08:00 - 21:00, Fri: 07:00 - 21:00, Sat: 10:00 - 17:00, Sun: 10:00 - 15:00",,,,,,,,,,,,,,,
Arc Leisure Matlock,53.1432757,-1.5704922,Bakewell Road,Matlock,DE4 3AZ,0162 9581322,"Mon: 06:30 - 22:00, Tue: 06:30 - 22:00, Wed: 06:30 - 22:00, Thu: 06:30 - 22:00, Fri: 06:30 - 22:00, Sat: 08:00 - 17:00, Sun: 08:00 - 20:00",,,,,,,,,,,,,,,
Armley Leisure Centre,53.7888452,-1.5955475,Carr Croft,Leeds,LS12 3HB,0113 3367880,"Mon: 07:00 - 22:00, Tue: 07:00 - 22:00, Wed: 07:00 - 22:00, Thu: 07:00 - 22:00, Fri: 07:00 - 22:00, Sat: 08:00 - 18:00, Sun: 08:00 - 22:00",,,,,,,,,,,,,,,
Arsenal FC Emirates Stadium,51.5550743,-0.108417,Islington,London,N7 7AJ,0207 6195050,"Mon: 00:00 - 00:00, Tue: 00:00 - 00:00, Wed: 00:00 - 00:00, Thu: 00:00 - 00:00, Fri: 00:00 - 00:00, Sat: 00:00 - 00:00, Sun: 00:00 - 00:00",,,,,,,,,,,,,,,
Asda Superstore Chaucer Sheffield,53.4289457,-1.4871887,Asda Superstore,Sheffield,S5 8NH,0114 2944250,"Mon: Contact for Information, Tue: Contact for Information, Wed: Contact for Information, Thu: Contact for Information, Fri: Contact for Information, Sat: Contact for Information, Sun: Contact for Information",,,,,,,,,,,,,,,
Ashbourne Library,53.0147089,-1.7315412,Compton,Ashbourne,DE6 1DA,0162 9533950,"Mon: 09:00 - 17:00, Tue: 09:00 - 19:00, Wed: 09:00 - 17:00, Thu: 09:00 - 17:00, Fri: 09:00 - 19:00, Sat: 09:00 - 13:00, Sun: Contact for Information",,,,,,,,,,,,,,,
Ashford Gateway Plus,51.1471787,0.872877,Church Road,Ashford,TN23 1AS,0845 8247202,"Mon: 09:00 - 20:00, Tue: 09:00 - 20:00, Wed: 09:00 - 20:00, Thu: 09:00 - 20:00, Fri: 09:00 - 18:00, Sat: 09:00 - 18:00, Sun: Contact for Information",,,,,,,,,,,,,,,
Aspects ROC,50.436752,-3.5653652,35/37 Hyde Road,Paignton,TQ4 5BP,0180 3552955,"Mon: 08:00 - 17:00, Tue: 08:00 - 19:00, Wed: 08:00 - 17:00, Thu: 08:00 - 19:00, Fri: 08:00 - 17:00, Sat: Contact for Information, Sun: Contact for Information",,,,,,,,,,,,,,,
Assisted Living Leeds,53.7896273,-1.5294528,81 Clarence Road,Leeds,LS10 1LZ,0113 3783300,"Mon: 08:30 - 17:00, Tue: 08:30 - 17:00, Wed: 08:30 - 17:00, Thu: 08:30 - 17:00, Fri: 08:30 - 17:00, Sat: Contact for Information, Sun: Contact for Information",,,,,,,,,,,,,,,
Aviary Cafe,53.3819158,-2.9393185,Liverpool,Merseyside,L17 1AP,0151 2332008,"Mon: Contact for Information, Tue: Contact for Information, Wed: Contact for Information, Thu: Contact for Information, Fri: Contact for Information, Sat: Contact for Information, Sun: Contact for Information",,,,,,,,,,,,,,,
Aviemore Primary School and Community Centre,57.1968614,-3.8272782,Milton Park,Aviemore,PH22 1RR,0147 9810343,"Mon: 08:00 - 22:00, Tue: 07:00 - 22:00, Wed: 08:00 - 22:00, Thu: 07:00 - 22:00, Fri: 08:00 - 22:00, Sat: 10:00 - 16:00, Sun: 10:30 - 15:00",,,,,,,,,,,,,,,
Ayrshire Athletics Arena,55.6003977,-4.4853154,Queens Drive,Kilmarnock,KA1 3XF,0156 3555227,"Mon: 09:00 - 13:30, Tue: 09:00 - 13:30, Wed: 13:00 - 16:00, Thu: 09:00 - 13:30, Fri: 09:00 - 13:30, Sat: 09:00 - 13:00, Sun: 09:30 - 13:30",,,,,,,,,,,,,,,
Baird Centre (The),55.5432305,-4.5644116,Hansel,Symington,KA1 5PU,0156 3831402,"Mon: 09:00 - 16:00, Tue: 09:00 - 16:00, Wed: 09:00 - 16:00, Thu: 09:00 - 16:00, Fri: 09:00 - 16:00, Sat: Contact for Information, Sun: Contact for Information",,,,,,,,,,,,,,,
Bakers Lane Public Conveniences,51.7011335,0.109852,Bakers Lane,Epping,CM16 5DQ,0199 2579444,"Mon: 08:30 - 17:00, Tue: 08:30 - 17:00, Wed: 08:30 - 17:00, Thu: 08:30 - 17:00, Fri: 08:30 - 17:00, Sat: 08:30 - 18:00, Sun: 08:30 - 18:00",,,,,,,,,,,,,,,
Barbican Camera Cafe,51.5209975,-0.0929778,Beech Street,London,EC2Y 8D,0207 6384141,"Mon: 08:00 - 22:30, Tue: 08:00 - 22:30, Wed: 08:00 - 22:30, Thu: 08:00 - 22:30, Fri: 08:00 - 22:30, Sat: 10:00 - 22:30, Sun: 10:00 - 22:30",,,,,,,,,,,,,,,
Barnes Park,54.894078,-1.4034607,Barnes Park Road,Sunderland,SR4 7PE,0191 5615111,"Mon: Contact for Information, Tue: Contact for Information, Wed: Contact for Information, Thu: Contact for Information, Fri: Contact for Information, Sat: Contact for Information, Sun: Contact for Information",,,,,,,,,,,,,,,
Barnsley Town Hall,53.5550694,-1.4822414,Church Street,Barnsley,S70 1QX,0122 6773090,"Mon: 09:00 - 17:00, Tue: 09:00 - 17:00, Wed: 09:00 - 17:00, Thu: 09:00 - 17:00, Fri: 09:00 - 16:30, Sat: Contact for Information, Sun: Contact for Information",,,,,,,,,,,,,,,
Barrhead Resource Centre,55.8038419,-4.396915,8 Carlibar Road,Barrhead,G78 1AA,0141 5778506,"Mon: 10:00 - 16:00, Tue: 10:00 - 16:00, Wed: 10:00 - 16:00, Thu: 10:00 - 16:00, Fri: 10:00 - 15:00, Sat: Contact for Information, Sun: Contact for Information",,,,,,,,,,,,,,,
Barrhead Health and Care Centre,55.8016695,-4.3887499,213 Main Street,Barrhead,G78 1SW,0141 8007004,"Mon: 08:30 - 16:00, Tue: 08:30 - 16:00, Wed: 08:30 - 16:00, Thu: 08:30 - 16:00, Fri: 08:30 - 16:00, Sat: Contact for Information, Sun: Contact for Information",,,,,,,,,,,,,,,
Basingstoke Discovery,51.2644749,-1.085506,Festival Place,Basingstoke,RG21 7LS,0125 6478670,"Mon: 08:30 - 18:30, Tue: 08:30 - 18:30, Wed: 08:30 - 18:30, Thu: 08:30 - 18:30, Fri: 08:30 - 18:30, Sat: 08:30 - 16:30, Sun: 11:00 - 17:00",,,,,,,,,,,,,,,
Batley Town Hall,53.7142464,-1.6338403,Market Place,Batley,WF17 5DA,0192 4324501,"Mon: 09:00 - 17:00, Tue: 09:00 - 17:00, Wed: 09:00 - 17:00, Thu: 09:00 - 17:00, Fri: 09:00 - 17:00, Sat: Contact for Information, Sun: Contact for Information",,,,,,,,,,,,,,,
Becontree Heath Leisure Centre,51.5608949,0.1490069,Althome way,Dagenham,RM10 7AY,0208 2273338,"Mon: 06:30 - 22:00, Tue: 06:30 - 22:00, Wed: 06:30 - 22:00, Thu: 06:30 - 22:00, Fri: 06:30 - 22:00, Sat: 08:00 - 20:00, Sun: 08:00 - 20:00",,,,,,,,,,,,,,,
Beechwood Leisure Centre,53.3951171,-3.0829732,18 Beechwood Drive,Wirral,CH43 7ZU,0151 6788020,"Mon: 08:30 - 22:30, Tue: 08:30 - 22:30, Wed: 08:30 - 22:30, Thu: 08:30 - 22:30, Fri: 08:30 - 22:30, Sat: 09:00 - 16:00, Sun: 09:00 - 16:00",,,,,,,,,,,,,,,
Beehive (The),50.8002443,-3.1952394,Dowell Street,Honiton,EX14 1LZ,0140 4384050,"Mon: Contact for Information, Tue: Contact for Information, Wed: Contact for Information, Thu: Contact for Information, Fri: Contact for Information, Sat: Contact for Information, Sun: Contact for Information",,,,,,,,,,,,,,,
Bell's Sports Centre,56.4029009,-3.4353318,Hay Street,Perth,PH1 5HS,0173 8454647,"Mon: 09:00 - 22:00, Tue: 09:00 - 22:00, Wed: 09:00 - 22:00, Thu: 09:00 - 22:00, Fri: 09:00 - 22:00, Sat: 09:00 - 17:00, Sun: 09:00 - 17:00",,,,,,,,,,,,,,,
Bellshill Locality Support Services,55.8191774,-4.0307901,95 Main Street,Bellshill,ML4 3DZ,0169 8403520,"Mon: 08:45 - 17:00, Tue: 08:45 - 17:00, Wed: 08:45 - 17:00, Thu: 08:45 - 16:45, Fri: 08:45 - 16:15, Sat: Contact for Information, Sun: Contact for Information",,,,,,,,,,,,,,,
Bernard Weatherill House,51.3716736,-0.1000049,8 Mint Walk,Croydon,CR0 1EA,0208 7266000,"Mon: 08:30 - 16:45, Tue: 08:30 - 16:45, Wed: 08:30 - 16:45, Thu: 08:30 - 16:45, Fri: 08:30 - 16:45, Sat: Contact for Information, Sun: Contact for Information",,,,,,,,,,,,,,,
Beverley Leisure Centre,53.8379181,-0.4213655,Flemingate,Beverley,HU17 0LT,0148 2881190,"Mon: 07:00 - 23:00, Tue: 07:00 - 23:00, Wed: 07:00 - 23:00, Thu: 07:00 - 23:00, Fri: 07:00 - 23:00, Sat: 08:00 - 22:00, Sun: 08:00 - 22:00",,,,,,,,,,,,,,,
Birmingham Airport,52.4523821,-1.7435071,Birmingham Airport,Birmingham,B26 3QJ,0871 2220072,"Mon: 00:00 - 23:59, Tue: 00:00 - 23:59, Wed: 00:00 - 23:59, Thu: 00:00 - 23:59, Fri: 00:00 - 23:59, Sat: 00:00 - 23:59, Sun: 00:00 - 23:59",,,,,,,,,,,,,,,
Bishop House Day Service (Facility 1),51.8679747,0.1515444,Windhill,Bishops Stortford,CM23 2NF,0199 2588555,"Mon: 08:30 - 16:15, Tue: 08:30 - 16:15, Wed: 08:30 - 16:15, Thu: 08:30 - 16:15, Fri: 08:30 - 16:15, Sat: Contact for Information, Sun: Contact for Information",,,,,,,,,,,,,,,
Bishops House Day Service (Facility 2),51.8679747,0.1515444,Windhill,Bishops Stortford,CM23 2NF,0199 2588555,"Mon: 08:30 - 16:15, Tue: 08:30 - 16:15, Wed: 08:30 - 16:15, Thu: 08:30 - 16:15, Fri: 08:30 - 16:15, Sat: Contact for Information, Sun: Contact for Information",,,,,,,,,,,,,,,
Blackburn Market,53.7481451,-2.4826586,Shop Mobility,Church Street,BB1 5AF,0125 4699258,"Mon: 09:00 - 17:00, Tue: 09:00 - 17:00, Wed: 09:00 - 17:00, Thu: 09:00 - 17:00, Fri: 09:00 - 17:00, Sat: 09:00 - 17:00, Sun: 09:00 - 17:00",,,,,,,,,,,,,,,
Blackpool Tower,53.8156863,-3.0558258,The Promenade,Blackpool,FY1 4BJ,0124 5629233,"Mon: Contact for Information, Tue: Contact for Information, Wed: Contact for Information, Thu: Contact for Information, Fri: Contact for Information, Sat: Contact for Information, Sun: Contact for Information",,,,,,,,,,,,,,,
Blaydon Leisure and Primary Care Centre (first floor),54.9582254,-1.6994246,Shibdon road,Blaydon,NE21 5NW,0191 4335770,"Mon: 07:00 - 22:00, Tue: 07:00 - 22:00, Wed: 07:00 - 22:00, Thu: 07:00 - 22:00, Fri: 07:00 - 22:00, Sat: 08:30 - 16:00, Sun: 08:30 - 16:00",,,,,,,,,,,,,,,
Blaydon Leisure and Primary Care Centre (ground),54.9582254,-1.6994246,Shibdon road,Blaydon,NE21 5NW,0191 4335770,"Mon: 07:00 - 22:00, Tue: 07:00 - 22:00, Wed: 07:00 - 22:00, Thu: 07:00 - 22:00, Fri: 07:00 - 22:00, Sat: Contact for Information, Sun: Contact for Information",,,,,,,,,,,,,,,
Bleachingfield Community Centre (The),56.0006473,-2.5202097,Countess Crescent,Dunbar,EH42 1DX,0136 8866001,"Mon: 00:00 - 23:59, Tue: 00:00 - 23:59, Wed: 00:00 - 23:59, Thu: 00:00 - 23:59, Fri: 00:00 - 23:59, Sat: 00:00 - 23:59, Sun: 00:00 - 23:59",,,,,,,,,,,,,,,
Bluewater Shopping Centre,51.4378079,0.2759123,Bluewater,Greenhithe,DA9 9ST,0132 2475475,"Mon: 10:00 - 21:00, Tue: 10:00 - 21:00, Wed: 10:00 - 21:00, Thu: 10:00 - 21:00, Fri: 10:00 - 21:00, Sat: 09:00 - 21:00, Sun: 11:00 - 17:00",,,,,,,,,,,,,,,
Cleethorpes Boating Lake Public Conveniences,53.5453483,-0.012656,Kings Road,Cleethorpes,DN35 0AG,0147 2313131,"Mon: Contact for Information, Tue: Contact for Information, Wed: Contact for Information, Thu: Contact for Information, Fri: Contact for Information, Sat: Contact for Information, Sun: Contact for Information",,,,,,,,,,,,,,,
Bolton One,53.574687,-2.4347574,Moor Lane,Bolton,BL3 5BN,0845 2671219,"Mon: 06:00 - 22:00, Tue: 06:00 - 22:00, Wed: 06:00 - 22:00, Thu: 06:00 - 22:00, Fri: 06:00 - 22:00, Sat: 08:00 - 18:00, Sun: 08:00 - 22:00",,,,,,,,,,,,,,,
Boswell Centre,55.4716659,-4.2927925,Well Road,Auchinleck,KA18 2LA,0129 0428464,"Mon: 09:00 - 18:00, Tue: 09:00 - 18:00, Wed: 09:00 - 18:00, Thu: 09:00 - 18:00, Fri: 09:00 - 18:00, Sat: 09:30 - 13:00, Sun: Contact for Information",,,,,,,,,,,,,,,
Bowhill Swimming Pool,56.1454416,-3.2645686,Station Road,Lochgelly,KY5 0BW,0159 2583304,"Mon: 10:00 - 21:30, Tue: 10:00 - 21:30, Wed: 10:00 - 21:30, Thu: 10:00 - 21:30, Fri: 10:00 - 21:30, Sat: 08:00 - 13:00, Sun: 08:00 - 13:00",,,,,,,,,,,,,,,
Bowling Pool,53.7791091,-1.7364217,Flockton Road,Bradford,BD4 7RH,0127 4727577,"Mon: 09:00 - 21:00, Tue: 07:30 - 21:00, Wed: 08:45 - 22:00, Thu: 07:30 - 21:30, Fri: 07:30 - 20:30, Sat: 08:30 - 16:30, Sun: 09:00 - 16:00",,,,,,,,,,,,,,,
Bradford Central Library,53.7912117,-1.7551491,Prince's Way,Bradford,BD1 1NN,0127 4433600,"Mon: 09:00 - 19:30, Tue: 09:00 - 19:30, Wed: 09:00 - 19:30, Thu: 09:00 - 19:30, Fri: 09:00 - 19:30, Sat: 09:00 - 17:00, Sun: Contact for Information",,,,,,,,,,,,,,,
Bradgate Park,52.6821343,-1.2259014,Newtown Linford,Leicester,LE6 0HB,0116 2362713,"Mon: Contact for Information, Tue: Contact for Information, Wed: Contact for Information, Thu: Contact for Information, Fri: Contact for Information, Sat: Contact for Information, Sun: Contact for Information",,,,,,,,,,,,,,,
Braehead Shopping Centre,55.8759412,-4.3648011,Kings Inch Road,Glasgow,G51 4BN,0141 8854600,"Mon: 10:00 - 21:00, Tue: 10:00 - 21:00, Wed: 10:00 - 21:00, Thu: 10:00 - 21:00, Fri: 10:00 - 21:00, Sat: 09:00 - 18:30, Sun: 09:00 - 18:30",,,,,,,,,,,,,,,
Bramcote Leisure Centre,52.9370648,-1.2479832,Derby Road,Nottingham,NG9 3GF,0115 9173000,"Mon: 07:00 - 22:00, Tue: 07:00 - 22:00, Wed: 07:00 - 22:00, Thu: 07:00 - 22:00, Fri: 07:00 - 22:00, Sat: 08:00 - 22:00, Sun: 08:00 - 22:00",,,,,,,,,,,,,,,
Brentwood Centre (Dryside),51.63383,0.2984201,Doddinghurst Road,Brentwood,CM15 9NN,0127 7215151,"Mon: 06:00 - 23:00, Tue: 06:00 - 23:00, Wed: 06:00 - 23:00, Thu: 06:00 - 23:00, Fri: 06:00 - 23:00, Sat: 07:00 - 22:00, Sun: 07:00 - 22:00",,,,,,,,,,,,,,,
Brentwood Centre (Wetside),51.6338566,0.2983343,Doddinghurst Road,Brentwood,CM15 9NN,0127 7215152,"Mon: 06:00 - 23:00, Tue: 06:00 - 23:00, Wed: 06:00 - 23:00, Thu: 06:00 - 23:00, Fri: 06:00 - 23:00, Sat: 07:00 - 22:00, Sun: 07:00 - 22:00",,,,,,,,,,,,,,,
Brentwood High Street Public Toilets,51.6211399,0.3047351,High Street,Brentwood,CM14 4RG,0127 7312500,"Mon: 07:30 - 18:00, Tue: 07:30 - 18:00, Wed: 07:30 - 18:00, Thu: 07:30 - 18:00, Fri: 07:30 - 18:00, Sat: 07:30 - 18:00, Sun: 07:30 - 18:00",,,,,,,,,,,,,,,
Briar Way Public Convenience,53.1417981,0.3386543,Briar Way,Skegness,PE25 3NR,0017 899887<,"Mon: Contact for Information, Tue: Contact for Information, Wed: Contact for Information, Thu: Contact for Information, Fri: Contact for Information, Sat: Contact for Information, Sun: Contact for Information",,,,,,,,,,,,,,,
Briars Pavilion,51.7549918,-0.229528,Briars Lane,Hatfield,AL10 8EY,0170 7346990,"Mon: 08:00 - 20:00, Tue: 08:00 - 20:00, Wed: 08:00 - 20:00, Thu: 08:00 - 20:00, Fri: 08:00 - 20:00, Sat: 09:00 - 19:00, Sun: Contact for Information",,,,,,,,,,,,,,,
Bridlington Park and Ride,54.0710202,-0.2048554,Belvedere Parade,Bridlington,YO15 3LX,0126 2672140,"Mon: Contact for Information, Tue: Contact for Information, Wed: Contact for Information, Thu: Contact for Information, Fri: Contact for Information, Sat: Contact for Information, Sun: Contact for Information",,,,,,,,,,,,,,,
Bridport Leisure Centre,50.7257678,-2.7632078,Brewery Fields,Bridport,DT6 5LN,"0013 427464
","Mon: 07:15 - 22:00, Tue: 07:15 - 22:00, Wed: 07:15 - 22:00, Thu: 07:15 - 22:00, Fri: 07:15 - 22:00, Sat: 09:15 - 17:30, Sun: 09:15 - 17:30",,,,,,,,,,,,,,,
Brighton and Hove Albion (AMEX Community Stadium),50.8607055,-0.0812815,Village Way,Brighton,BN1 9BL,0844 3271901,"Mon: 07:00 - 23:59, Tue: 07:00 - 23:59, Wed: 07:00 - 23:59, Thu: 07:00 - 23:59, Fri: 07:00 - 23:59, Sat: 07:00 - 23:59, Sun: 07:00 - 23:59",,,,,,,,,,,,,,,
Brigshaw High School,53.7576788,-1.383988,Brigshaw Lane,Castleford,WF10 2HR,0113 3368100,"Mon: 09:00 - 15:00, Tue: 09:00 - 15:00, Wed: 09:00 - 15:00, Thu: 09:00 - 15:00, Fri: 09:00 - 15:00, Sat: Contact for Information, Sun: Contact for Information",,,,,,,,,,,,,,,
Brixworth Country Park,52.3265342,-0.9041453,Northampton Road,Brixworth,NN6 9DG,0160 4883920,"Mon: 00:00 - 23:59, Tue: 00:00 - 23:59, Wed: 00:00 - 23:59, Thu: 00:00 - 23:59, Fri: 00:00 - 23:59, Sat: 00:00 - 23:59, Sun: 00:00 - 23:59",,,,,,,,,,,,,,,
Broad Street Mall,51.4548096,-0.9758956,Broad street,Reading,RG1:7QE,0118 9576633,"Mon: 09:00 - 18:00, Tue: 09:00 - 18:00, Wed: 09:00 - 18:00, Thu: 09:00 - 18:00, Fri: 09:00 - 18:00, Sat: Contact for Information, Sun: 10:00 - 17:00",,,,,,,,,,,,,,,
Broadbridge Health Leisure Centre,51.0644968,-0.3592283,Wickhurst Lane,Broadbridge Heath,RH12 3YS,0140 3211311,"Mon: 07:00 - 10:30, Tue: 07:00 - 10:30, Wed: 07:00 - 10:30, Thu: 07:00 - 10:30, Fri: 07:00 - 10:30, Sat: 09:00 - 20:00, Sun: 21:00 - 22:30",,,,,,,,,,,,,,,
Broadgreen Hospital,53.4098687,-2.8972427,Thomas Drive,Liverpool,L14 3LB,0151 7062000,"Mon: Contact for Information, Tue: Contact for Information, Wed: Contact for Information, Thu: Contact for Information, Fri: Contact for Information, Sat: Contact for Information, Sun: Contact for Information",,,,,,,,,,,,,,,
Bromsgrove Town Centre Public Toilets,52.3352198,-2.061772,Crown Close,Bromsgrove,B61 8EX,0152 7881288,"Mon: Contact for Information, Tue: Contact for Information, Wed: Contact for Information, Thu: Contact for Information, Fri: Contact for Information, Sat: Contact for Information, Sun: Contact for Information",,,,,,,,,,,,,,,
Brownlow Community Hub,54.4453913,-6.363524,7 Brownlow Road,Craigavon,BT65 5DL,0283 8313630,"Mon: 08:30 - 22:00, Tue: 08:30 - 22:00, Wed: 08:30 - 22:00, Thu: 08:30 - 22:00, Fri: 08:30 - 22:00, Sat: 09:00 - 17:00, Sun: 14:30 - 20:30",,,,,,,,,,,,,,,
Broxbourne Day Services,51.6998376,-0.0304709,King Arthur Court,Cheshunt,EN8 8EH,0199 2636169,"Mon: 09:00 - 16:00, Tue: 09:00 - 16:00, Wed: 09:00 - 16:00, Thu: 09:00 - 16:00, Fri: 09:00 - 16:00, Sat: Contact for Information, Sun: Contact for Information",,,,,,,,,,,,,,,
Brunel Centre Public Toilets,51.5603267,-1.7887919,"Market Street, off Farnsby Street",Swindon,SN1 1RZ,0179 3445503,"Mon: 09:00 - 17:30, Tue: 09:00 - 17:30, Wed: 09:00 - 17:30, Thu: 09:00 - 17:30, Fri: 09:00 - 17:30, Sat: 09:00 - 17:30, Sun: Contact for Information",,,,,,,,,,,,,,,
Brunton House,56.1087392,-3.3428458,High Street,Fife,KY4 9QU,0138 3602377,"Mon: 09:00 - 17:00, Tue: 09:00 - 17:00, Wed: 09:00 - 17:00, Thu: 09:00 - 17:00, Fri: 09:00 - 17:00, Sat: Contact for Information, Sun: Contact for Information",,,,,,,,,,,,,,,
Bullring Birmingham,52.4777103,-1.8942501,Middle East Mall,Birmingham,B5 4BU,0121 6321526,"Mon: 10:00 - 20:00, Tue: 10:00 - 20:00, Wed: 10:00 - 20:00, Thu: 10:00 - 20:00, Fri: 10:00 - 20:00, Sat: 09:00 - 20:00, Sun: 11:00 - 17:00",,,,,,,,,,,,,,,
Bulwell Riverside Joint Services Centre,53.0007621,-1.1965957,Main Street,Bulwell North,NG6 9HY,0115 8833500,"Mon: 07:00 - 20:00, Tue: 07:00 - 20:00, Wed: 07:00 - 20:00, Thu: 07:00 - 20:00, Fri: 07:00 - 20:00, Sat: 08:00 - 16:00, Sun: Contact for Information",,,,,,,,,,,,,,,
Burnie Day Centre,57.6716559,-2.9657972,Highfield Road,Buckie,AB56 1JE,0154 2832272,"Mon: 09:00 - 16:00, Tue: 09:00 - 16:00, Wed: 09:00 - 16:00, Thu: 09:00 - 16:00, Fri: 09:00 - 16:00, Sat: Contact for Information, Sun: Contact for Information",,,,,,,,,,,,,,,
Burton Stone Centre,53.9740074,-1.0895407,Evelyn Crescent,Cliftonville,YO30 6DR,0190 4645816,"Mon: 08:30 - 15:30, Tue: 08:30 - 21:00, Wed: 08:30 - 21:00, Thu: 08:30 - 21:00, Fri: 08:30 - 15:30, Sat: 09:00 - 14:00, Sun: Contact for Information",,,,,,,,,,,,,,,
Cabot Circus,51.4581535,-2.5845962,Glass House,Bristol,BS1 3BX,0117 9529360,"Mon: 10:00 - 20:00, Tue: 10:00 - 20:00, Wed: 10:00 - 20:00, Thu: 10:00 - 20:00, Fri: 10:00 - 20:00, Sat: 10:00 - 20:00, Sun: 11:00 - 17:00",,,,,,,,,,,,,,,
Cadbury World,52.4295885,-1.9309797,Linden Road,Bourneville,B20 3LU,0844 8807667,"Mon: 10:00 - 15:00, Tue: 10:00 - 15:00, Wed: 10:00 - 15:00, Thu: 10:00 - 15:00, Fri: 10:00 - 15:00, Sat: 10:00 - 16:00, Sun: 10:00 - 16:00",,,,,,,,,,,,,,,
Calderstones Park,53.3854722,-2.8972349,Menlove Avenue,Liverpool,L18 3JD,0151 2333001,"Mon: 08:00 - 17:00, Tue: 08:00 - 17:00, Wed: 08:00 - 17:00, Thu: 08:00 - 17:00, Fri: 08:00 - 17:00, Sat: 08:00 - 17:00, Sun: 08:00 - 17:00",,,,,,,,,,,,,,,
Cambridge House,51.480869,-0.0939393,1 Addington Square,Camberwell,SE5 0HF,0207 3587000,"Mon: 09:00 - 22:00, Tue: 09:00 - 22:00, Wed: 09:00 - 22:00, Thu: 09:00 - 22:00, Fri: 09:00 - 22:00, Sat: 09:30 - 17:00, Sun: 09:30 - 15:00",,,,,,,,,,,,,,,
Cambridge Shop Mobility,52.2048252,0.1192248,Grand Arcade Car Park,Cambridge,CB2 3QJ,0122 3457452,"Mon: 10:00 - 16:00, Tue: 10:00 - 16:00, Wed: 10:00 - 16:00, Thu: 10:00 - 16:00, Fri: 10:00 - 16:00, Sat: 10:00 - 16:00, Sun: Contact for Information",,,,,,,,,,,,,,,
Camden Society (The),51.5498309,-0.1441603,60 Holmes Road,London,NW5 3AQ,0208 9831394,"Mon: 09:00 - 17:30, Tue: 09:00 - 17:30, Wed: 09:00 - 17:30, Thu: 09:00 - 17:30, Fri: 09:00 - 17:30, Sat: Contact for Information, Sun: Contact for Information",,,,,,,,,,,,,,,
Camel Trail,50.5177966,-4.8381654,Foundation Building,Wadebridge,PL27 7AL,0300 1234202,"Mon: Contact for Information, Tue: Contact for Information, Wed: Contact for Information, Thu: Contact for Information, Fri: Contact for Information, Sat: Contact for Information, Sun: Contact for Information",,,,,,,,,,,,,,,
Camperdown Country Park,56.4813868,-3.0416475,Coupar Angus Road,Dundee,DD2 4TF,0138 2431811,"Mon: 08:00 - 19:00, Tue: 08:00 - 19:00, Wed: 08:00 - 19:00, Thu: 08:00 - 19:00, Fri: 08:00 - 19:00, Sat: 08:00 - 19:00, Sun: 08:00 - 19:00",,,,,,,,,,,,,,,
Capability Scotland Head Office,55.9464435,-3.247974,11 Ellersly Road,Edinburgh,EH12 6HY,0131 3379876,"Mon: 09:00 - 17:00, Tue: 09:00 - 17:00, Wed: 09:00 - 17:00, Thu: 09:00 - 17:00, Fri: 09:00 - 17:00, Sat: Contact for Information, Sun: Contact for Information",,,,,,,,,,,,,,,
Car Haven Public toilets,52.5712086,-0.2415652,"St, Peter's Road",Peterborough,PE1 1HG,0173 3747474,"Mon: 08:00 - 18:30, Tue: 08:00 - 18:30, Wed: 08:00 - 18:30, Thu: 08:00 - 18:30, Fri: 08:00 - 18:30, Sat: 08:00 - 18:30, Sun: 09:30 - 16:30",,,,,,,,,,,,,,,
Glasgow Clyde College,55.8406305,-4.336962,Cardonald Campus,Glasgow,G52 3AY,0141 2723300,"Mon: 08:30 - 17:00, Tue: 08:30 - 17:00, Wed: 08:30 - 17:00, Thu: 08:30 - 17:00, Fri: 08:30 - 17:00, Sat: Contact for Information, Sun: Contact for Information",,,,,,,,,,,,,,,
Carlisle Business Centre,53.8055729,-1.7718967,60 Carlisle Road,Bradford,BD8 8BD,0127 4223203,"Mon: 00:00 - 23:59, Tue: 00:00 - 23:59, Wed: 00:00 - 23:59, Thu: 00:00 - 23:59, Fri: 00:00 - 23:59, Sat: 00:00 - 23:59, Sun: 00:00 - 23:59",,,,,,,,,,,,,,,
Carlisle YMCA (Shaddon Gateway),54.8922406,-2.9454173,Shaddongate,Carlisle,CA2 5TY,0122 8510036,"Mon: 09:00 - 17:00, Tue: 09:00 - 17:00, Wed: 09:00 - 17:00, Thu: 09:00 - 17:00, Fri: 09:00 - 17:00, Sat: Contact for Information, Sun: Contact for Information",,,,,,,,,,,,,,,
Carlton Road Day Centre,51.5009046,-0.2625227,8-10 Carlton Road,London,W4 5DY,0208 9957186,"Mon: 09:00 - 17:00, Tue: 09:00 - 17:00, Wed: 09:00 - 17:00, Thu: 09:00 - 17:00, Fri: 09:00 - 17:00, Sat: Contact for Information, Sun: Contact for Information",,,,,,,,,,,,,,,
South lanarkshire Lifestyles Carluke,55.7336664,-3.8336899,Carnwrath Road,Carluke,ML8 4DF,0155 5770308,"Mon: 09:00 - 21:00, Tue: 09:00 - 21:00, Wed: 09:00 - 21:00, Thu: 09:00 - 21:00, Fri: 09:00 - 21:00, Sat: 09:00 - 21:00, Sun: 09:00 - 21:00",,,,,,,,,,,,,,,
Carnegie Leisure Centre,56.0740844,-3.4605476,46 Pilmuir street,Dunfermline,KY12 0QE,0138 3602304,"Mon: 06:00 - 21:30, Tue: 06:00 - 21:30, Wed: 06:00 - 21:30, Thu: 06:00 - 21:30, Fri: 06:00 - 21:30, Sat: 08:00 - 20:00, Sun: 08:00 - 20:00",,,,,,,,,,,,,,,
Carter Lane Day Centre,53.2036365,-1.2167467,Carter Lane,Shirebrook,NG20 8PE,"0016 537404
","Mon: 08:45 - 16:10, Tue: 08:45 - 16:10, Wed: 08:45 - 16:10, Thu: 08:45 - 16:10, Fri: 08:45 - 16:10, Sat: Contact for Information, Sun: Contact for Information",,,,,,,,,,,,,,,
Cartrefi Cymru,51.8580158,-4.312431,18 Water Street,Carmarthen,SA31 1PY,0126 7266911,"Mon: 09:00 - 17:00, Tue: 09:00 - 17:00, Wed: 09:00 - 17:00, Thu: 09:00 - 17:00, Fri: 09:00 - 17:00, Sat: Contact for Information, Sun: Contact for Information",,,,,,,,,,,,,,,
Castle House,54.2845155,-0.3992543,Elders Street,Scarborough,YO11 1DZ,0845 0349564,"Mon: 08:30 - 16:00, Tue: 08:30 - 16:00, Wed: 08:30 - 16:00, Thu: 08:30 - 16:00, Fri: 08:30 - 16:00, Sat: Contact for Information, Sun: Contact for Information",,,,,,,,,,,,,,,
Cat Nab Saltburn,54.5833843,-0.9678275,Saltburn Bank,Saltburn,TS12 1DP,,"Mon: 08:00 - 18:00, Tue: 08:00 - 18:00, Wed: 08:00 - 18:00, Thu: 08:00 - 18:00, Fri: 08:00 - 18:00, Sat: 08:00 - 18:00, Sun: 08:00 - 18:00",,,,,,,,,,,,,,,
Cauwood Day Centre,54.1400843,-0.7882858,Old Malton Road,Malton,YO17 7EY,0165 3696588,"Mon: 08:30 - 16:00, Tue: 08:30 - 16:00, Wed: 08:30 - 16:00, Thu: 08:30 - 16:00, Fri: 08:30 - 16:00, Sat: Contact for Information, Sun: Contact for Information",,,,,,,,,,,,,,,
Cedarwood Day Service,57.6398815,-3.3161705,Edgar Road,Elgin,IV30 6VQ,0134 3542023,"Mon: 09:00 - 16:00, Tue: 09:00 - 16:00, Wed: 09:00 - 16:00, Thu: 09:00 - 16:00, Fri: 09:00 - 16:00, Sat: Contact for Information, Sun: Contact for Information",,,,,,,,,,,,,,,
Centre 404,51.5535087,-0.1224851,404 Camden Road,London,N7 0SJ,0207 6078762,"Mon: 09:30 - 17:00, Tue: 09:30 - 17:00, Wed: 09:30 - 17:00, Thu: 09:30 - 17:00, Fri: 09:30 - 17:00, Sat: Contact for Information, Sun: Contact for Information",,,,,,,,,,,,,,,
Centre:MK Shopping Centre,52.0425963,-0.7580111,24 Silbury Arcade Central,Milton Keynes,MK9 3ES,0190 8398100,"Mon: 09:30 - 20:00, Tue: 09:30 - 20:00, Wed: 09:30 - 20:00, Thu: 09:30 - 20:00, Fri: 09:30 - 20:00, Sat: 09:00 - 19:00, Sun: 11:00 - 17:00",,,,,,,,,,,,,,,
Ceredigion County Council,52.4078097,-4.0697495,Canolfan Rheidol Rhodfa Padarn,Aberystwyth,SY23 3UE,0197 0633005,"Mon: 09:00 - 17:00, Tue: 09:00 - 17:00, Wed: 09:00 - 17:00, Thu: 09:00 - 17:00, Fri: 09:00 - 17:00, Sat: Contact for Information, Sun: Contact for Information",,,,,,,,,,,,,,,
Chalkwell Shelter,51.537342,0.6764826,Westcliffe on Sea,Southend,SS0 8JH,0017 215006<,"Mon: 00:00 - 23:59, Tue: 00:00 - 23:59, Wed: 00:00 - 23:59, Thu: 00:00 - 23:59, Fri: 00:00 - 23:59, Sat: 00:00 - 23:59, Sun: 00:00 - 23:59",,,,,,,,,,,,,,,
Braintree Mencap,51.8802017,0.5536434,Charles Leek House,Braintree,CM7 9DB,0137 6326302,"Mon: 09:30 - 16:00, Tue: 09:30 - 16:00, Wed: 09:30 - 16:00, Thu: 09:30 - 16:00, Fri: 09:30 - 16:00, Sat: Contact for Information, Sun: Contact for Information",,,,,,,,,,,,,,,
Chelmsley Wood Shopping Centre,52.4803057,-1.7396321,33 Maple Walk,Birmingham,B37 5TS,0121 7701775,"Mon: 08:00 - 20:00, Tue: 08:00 - 20:00, Wed: 08:00 - 20:00, Thu: 08:00 - 20:00, Fri: 08:00 - 20:00, Sat: Contact for Information, Sun: Contact for Information",,,,,,,,,,,,,,,
Cherwell Valley MOTO,51.9499232,-1.1988005,Junction 10,M40,OX27 7RD,0186 9346060,"Mon: 00:00 - 23:59, Tue: 00:00 - 23:59, Wed: 00:00 - 23:59, Thu: 00:00 - 23:59, Fri: 00:00 - 23:59, Sat: 00:00 - 23:59, Sun: 00:00 - 23:59",,,,,,,,,,,,,,,
Chessington World of Adventures Resort,51.3474333,-0.3145416,Leatherhead Road,Chessington,KT9 2NE,0871 6634477,"Mon: Contact for Information, Tue: Contact for Information, Wed: Contact for Information, Thu: Contact for Information, Fri: Contact for Information, Sat: Contact for Information, Sun: Contact for Information",,,,,,,,,,,,,,,
Chester City Centre - Frodsham Street,53.1925199,-2.8885621,Frodsham Street,Chester,CH1 3JJ,0300 1238123,"Mon: 08:00 - 20:00, Tue: 08:00 - 20:00, Wed: 08:00 - 20:00, Thu: 08:00 - 20:00, Fri: 08:00 - 20:00, Sat: 08:00 - 20:00, Sun: 08:00 - 20:00",,,,,,,,,,,,,,,
Chester Zoo,53.2266182,-2.8888556,Caughall Road,Chester,CH2 1LH,0124 4380280,"Mon: Contact for Information, Tue: Contact for Information, Wed: Contact for Information, Thu: Contact for Information, Fri: Contact for Information, Sat: Contact for Information, Sun: Contact for Information",,,,,,,,,,,,,,,
Chesterfield FC Community Trust,53.2531071,-1.4262847,"The Hub, Proact Stadium",Chesterfield,S41 8NZ,0124 6264030,"Mon: 07:00 - 22:00, Tue: 07:00 - 22:00, Wed: 07:00 - 22:00, Thu: 07:00 - 22:00, Fri: 07:00 - 22:00, Sat: 08:00 - 21:00, Sun: 08:00 - 21:00",,,,,,,,,,,,,,,
Chevin Forest Park,53.8976755,-1.6938232,Johnny Lane,Otley,LS21 3JL,0194 3465023,"Mon: 10:00 - 14:00, Tue: Contact for Information, Wed: 10:00 - 14:00, Thu: 10:00 - 14:00, Fri: 10:00 - 14:00, Sat: 11:00 - 15:00, Sun: 11:00 - 15:00",,,,,,,,,,,,,,,
Chopsticks (North Yorkshire) Resource Centre,54.3505952,-1.4403533,Endeavour House,Northallerton,DL6 2NA,0160 9761661,"Mon: 09:00 - 15:30, Tue: 09:00 - 15:30, Wed: 09:00 - 15:30, Thu: 09:00 - 15:30, Fri: 09:00 - 15:30, Sat: 08:30 - 16:00, Sun: 08:30 - 16:00",,,,,,,,,,,,,,,
Chorley and South Ribble District Hospital,53.6650715,-2.6323118,Preston Road,Chorley,PR7 1PP,0125 7261222,"Mon: 00:00 - 23:59, Tue: 00:00 - 23:59, Wed: 00:00 - 23:59, Thu: 00:00 - 23:59, Fri: 00:00 - 23:59, Sat: 00:00 - 23:59, Sun: 00:00 - 23:59",,,,,,,,,,,,,,,
Chorley Borough Council,53.6105752,-2.6052638,Market Street,Chorley,PR7 1DP,0125 7515151,"Mon: 08:45 - 17:00, Tue: 08:45 - 17:00, Wed: 08:45 - 17:00, Thu: 08:45 - 17:00, Fri: 08:45 - 17:00, Sat: Contact for Information, Sun: Contact for Information",,,,,,,,,,,,,,,
Chowdene Children's Centre,54.9203874,-1.5887896,Waverley Road,Gateshead,NE9 7TU,0191 4335050,"Mon: 09:00 - 17:00, Tue: 09:00 - 17:00, Wed: 09:00 - 17:00, Thu: 09:00 - 17:00, Fri: 09:00 - 17:00, Sat: Contact for Information, Sun: Contact for Information",,,,,,,,,,,,,,,
Church Street Car Park,52.670673,-0.729705,Church Street,"Oakham,",LE15 6AA,,"Mon: Contact for Information, Tue: Contact for Information, Wed: Contact for Information, Thu: Contact for Information, Fri: Contact for Information, Sat: Contact for Information, Sun: Contact for Information",,,,,,,,,,,,,,,
City Hall,51.5049202,-0.0785759,The Queen's Walk,London,SE1 2AA,0207 9834000,"Mon: 08:30 - 18:00, Tue: 08:30 - 18:00, Wed: 08:30 - 18:00, Thu: 08:30 - 18:00, Fri: 08:30 - 17:30, Sat: Contact for Information, Sun: Contact for Information",,,,,,,,,,,,,,,
City Library,54.9745439,-1.6103076,New Bridge Street West,Newcastle upon Tyne,NE1 8AX,0191 2774167,"Mon: 08:30 - 20:00, Tue: 08:30 - 20:00, Wed: 08:30 - 20:00, Thu: 08:30 - 20:00, Fri: 08:30 - 17:30, Sat: 08:30 - 17:30, Sun: 11:00 - 17:00",,,,,,,,,,,,,,,
City Park,53.7921951,-1.7554479,Hall Ings,Bradford,BD1 1HY,,"Mon: 08:00 - 20:00, Tue: 08:00 - 20:00, Wed: 08:00 - 20:00, Thu: 08:00 - 20:00, Fri: 08:00 - 20:00, Sat: 09:30 - 18:30, Sun: 09:30 - 18:00",,,,,,,,,,,,,,,
Clacton on Sea Changing Places,51.7823177,1.1440246,West Greensward,Clacton on Sea,CO15 1XB,0125 5686969,"Mon: 00:00 - 23:59, Tue: 00:00 - 23:59, Wed: 00:00 - 23:59, Thu: 00:00 - 23:59, Fri: 00:00 - 23:59, Sat: Contact for Information, Sun: Contact for Information",,,,,,,,,,,,,,,
Cliffe House (Facility 1),53.5810434,-1.7101827,140 Lane Head Road,Huddersfield,HD8 8DB,0148 4222720,"Mon: 08:00 - 17:00, Tue: 08:00 - 17:00, Wed: 08:00 - 17:00, Thu: 08:00 - 17:00, Fri: 08:00 - 17:00, Sat: Contact for Information, Sun: Contact for Information",,,,,,,,,,,,,,,
Cobbold Road Public Convenience,51.9640733,1.3501969,Crescent Road Car Park,Felixstowe,IP11 7BX,0139 4383789,"Mon: 00:00 - 23:59, Tue: 00:00 - 23:59, Wed: 00:00 - 23:59, Thu: 00:00 - 23:59, Fri: 00:00 - 23:59, Sat: 00:00 - 23:59, Sun: 00:00 - 23:59",,,,,,,,,,,,,,,
Codsall Leisure Centre,52.6301332,-2.1888836,Elliots Lane,Codsall,WV8 1PG,0190 2844032,"Mon: 08:30 - 21:30, Tue: 08:30 - 21:30, Wed: 08:30 - 21:30, Thu: 08:30 - 21:30, Fri: 08:30 - 21:30, Sat: 09:00 - 17:30, Sun: 09:00 - 17:30",,,,,,,,,,,,,,,
Coffee House,51.7231633,-2.5344324,Whitecross Road,Lydney,GL15 5DQ,0751 1835551,"Mon: Contact for Information, Tue: Contact for Information, Wed: Contact for Information, Thu: Contact for Information, Fri: Contact for Information, Sat: Contact for Information, Sun: Contact for Information",,,,,,,,,,,,,,,
Colburn Community Health Centre,54.3766789,-1.6962013,Catterick Road,Colburn,DL9 4QH,"0017 835660
","Mon: 09:00 - 21:00, Tue: 09:00 - 21:00, Wed: 09:00 - 21:00, Thu: 09:00 - 21:00, Fri: 09:00 - 21:00, Sat: 09:00 - 16:00, Sun: 09:00 - 16:00",,,,,,,,,,,,,,,
Colonnade Public Toilets,50.8172588,-0.1230665,Madeira Drive,Brighton,BN2 1EN,"0012 292929
","Mon: Contact for Information, Tue: Contact for Information, Wed: Contact for Information, Thu: Contact for Information, Fri: Contact for Information, Sat: Contact for Information, Sun: Contact for Information",,,,,,,,,,,,,,,
Community Centre,51.5267317,0.0240063,140 Balaam Street,Plaistow,E13 8RD,0208 5521004,"Mon: 09:30 - 17:00, Tue: 09:30 - 17:00, Wed: 09:30 - 17:00, Thu: 09:30 - 17:00, Fri: 09:30 - 17:00, Sat: Contact for Information, Sun: Contact for Information",,,,,,,,,,,,,,,
Community Kitchen Building - Occombe Farm,50.4568775,-3.5906862,Preston Down Road,Paignton,TQ3 1RN,0180 3696243,"Mon: 08:30 - 16:30, Tue: 08:30 - 16:30, Wed: 08:30 - 16:30, Thu: 08:30 - 16:30, Fri: 08:30 - 16:30, Sat: 08:30 - 16:30, Sun: 08:30 - 16:30",,,,,,,,,,,,,,,
Connect (Wyre Forest),52.3890199,-2.2476788,10-12 Blackwell Street,Kidderminster,DY10 2DP,0156 2829700,"Mon: 10:30 - 16:00, Tue: 10:30 - 16:00, Wed: 10:30 - 16:00, Thu: 10:30 - 16:00, Fri: 10:30 - 16:00, Sat: Contact for Information, Sun: Contact for Information",,,,,,,,,,,,,,,
Corbett Centre,57.4892203,-4.2387943,Coronation Park,Inverness,IV3 8AD,0146 3729282,"Mon: 09:00 - 16:30, Tue: 09:00 - 16:30, Wed: 09:00 - 16:30, Thu: 09:00 - 16:30, Fri: 09:00 - 16:30, Sat: Contact for Information, Sun: Contact for Information",,,,,,,,,,,,,,,
Corby East Midlands International Swimming Pool,52.4879357,-0.7056388,Parkland Gateway,Corby,NN17 1QB,0153 6464643,"Mon: Contact for Information, Tue: Contact for Information, Wed: Contact for Information, Thu: Contact for Information, Fri: Contact for Information, Sat: Contact for Information, Sun: Contact for Information",,,,,,,,,,,,,,,
Cornerstone,51.6074307,-1.2399554,25 Station Road,Didcot,OX11 7NE,0123 5515144,"Mon: 10:00 - 21:00, Tue: 10:00 - 21:00, Wed: 10:00 - 21:00, Thu: 10:00 - 21:00, Fri: 10:00 - 21:00, Sat: 10:00 - 21:00, Sun: 11:00 - 16:00",,,,,,,,,,,,,,,
Cornerstone (The),54.0482408,-2.7969595,Sulyard Street,Lancashire,LA1 1PX,0152 4846509,"Mon: 10:00 - 15:00, Tue: 10:00 - 15:00, Wed: 10:00 - 15:00, Thu: 10:00 - 15:00, Fri: 10:00 - 15:00, Sat: 10:00 - 15:00, Sun: Contact for Information",,,,,,,,,,,,,,,
Coronation Drive,54.6694898,-1.1909529,Seaton Carew,Hartlepool,TS25 1XN,,"Mon: 08:00 - 22:00, Tue: 08:00 - 22:00, Wed: 08:00 - 22:00, Thu: 08:00 - 22:00, Fri: 08:00 - 22:00, Sat: 08:00 - 22:00, Sun: 08:00 - 22:00",,,,,,,,,,,,,,,
Corris Craft Centre,52.6546094,-3.8503522,Machynlleth,Powys,SY20 9RF,0165 4761584,"Mon: 10:00 - 17:00, Tue: 10:00 - 17:00, Wed: 10:00 - 17:00, Thu: 10:00 - 17:00, Fri: 10:00 - 17:00, Sat: 10:00 - 17:00, Sun: 10:00 - 17:00",,,,,,,,,,,,,,,
County Hall - Isle of Wight,50.7006641,-1.2905612,County Hall,Isle of Wight,PO30 1UD,0198 3821000,"Mon: 08:30 - 17:00, Tue: 08:30 - 17:00, Wed: 08:30 - 17:00, Thu: 08:30 - 17:00, Fri: 08:30 - 16:30, Sat: Contact for Information, Sun: Contact for Information",,,,,,,,,,,,,,,
County Hall Trowbridge,51.3175332,-2.210082,Bythesea Road,Trowbridge,BA14 8JN,0122 5713000,"Mon: 08:30 - 17:00, Tue: 08:30 - 17:00, Wed: 08:30 - 17:00, Thu: 08:30 - 17:00, Fri: 08:30 - 17:00, Sat: Contact for Information, Sun: Contact for Information",,,,,,,,,,,,,,,
Coventry Central Library,52.4090821,-1.5132511,Smithford Way,Coventry,CV1 1FY,"0024 32314

","Mon: 09:00 - 19:30, Tue: 09:00 - 19:30, Wed: 09:00 - 19:30, Thu: 09:00 - 19:30, Fri: 09:00 - 19:30, Sat: 09:00 - 16:00, Sun: 09:00 - 16:00",,,,,,,,,,,,,,,
Cowbridge Leisure Centre,51.4641794,-3.4539288,The Broadshoard,Cowbridge,CF71 7DA,0144 6775533,"Mon: 07:00 - 22:00, Tue: 07:00 - 22:00, Wed: 07:00 - 22:00, Thu: 07:00 - 22:00, Fri: 07:00 - 22:00, Sat: 07:00 - 22:00, Sun: 07:00 - 22:00",,,,,,,,,,,,,,,
Craven College,53.9639093,-2.0363757,Gargrave Road,Skipton,BD23 1US,0175 6791411,"Mon: 08:30 - 16:30, Tue: 08:30 - 16:30, Wed: 08:30 - 16:30, Thu: 08:30 - 16:30, Fri: 08:30 - 16:00, Sat: Contact for Information, Sun: Contact for Information",,,,,,,,,,,,,,,
Craven District Council,53.9596923,-2.0238,1 Belle View Square,Skipton,BD23 1FJ,0175 6700600,"Mon: 09:00 - 17:00, Tue: 09:00 - 17:00, Wed: 09:00 - 17:00, Thu: 09:00 - 17:00, Fri: 09:00 - 16:30, Sat: Contact for Information, Sun: Contact for Information",,,,,,,,,,,,,,,
Crewe Lyceum Theatre,53.0992203,-2.4398138,Lyceum Square,Crewe,CW1 2BZ,0300 1230055,"Mon: Contact for Information, Tue: Contact for Information, Wed: Contact for Information, Thu: Contact for Information, Fri: Contact for Information, Sat: Contact for Information, Sun: Contact for Information",,,,,,,,,,,,,,,
Cricketfield Road Car Park Toilets,50.5318225,-3.6077086,Cricketfield Road Car Park,Newton Abbot,TQ12 2AS,,"Mon: Contact for Information, Tue: Contact for Information, Wed: Contact for Information, Thu: Contact for Information, Fri: Contact for Information, Sat: Contact for Information, Sun: Contact for Information",,,,,,,,,,,,,,,
Cromford Wharf,53.1093564,-1.5546003,Mill Road,Cromford,DE4 3RQ,0162 9533190,"Mon: 07:30 - 21:30, Tue: 07:30 - 21:30, Wed: 07:30 - 21:30, Thu: 07:30 - 21:30, Fri: 07:30 - 21:30, Sat: 07:30 - 21:30, Sun: 07:30 - 21:30",,,,,,,,,,,,,,,
Crosshouse Area Centre,55.611227,-4.5485914,1 Annadale Gardens,Crosshouse,KA2 0LE,0156 3503290,"Mon: 08:30 - 18:00, Tue: 08:30 - 18:00, Wed: 08:30 - 18:00, Thu: 08:30 - 18:00, Fri: 08:30 - 18:00, Sat: 09:30 - 13:30, Sun: Contact for Information",,,,,,,,,,,,,,,
Crow Nest Adventure Playground,53.6872426,-1.6485485,Heckmondwike Road,Dewsbury,WF13 2SG,0192 4325108,"Mon: Contact for Information, Tue: Contact for Information, Wed: 15:30 - 18:00, Thu: 15:30 - 18:00, Fri: 15:30 - 18:00, Sat: Contact for Information, Sun: Contact for Information",,,,,,,,,,,,,,,
Croxteth Hall and Country Park,53.448026,-2.9012332,Croxteth Hall Lane,Liverpool,L11 1EH,0151 2333001,"Mon: Contact for Information, Tue: Contact for Information, Wed: Contact for Information, Thu: Contact for Information, Fri: Contact for Information, Sat: Contact for Information, Sun: Contact for Information",,,,,,,,,,,,,,,
Crucible Theatre,53.3813635,-1.4671765,55 Norfolk Street,Sheffield,S1 1DA,0114 2495999,"Mon: Contact for Information, Tue: Contact for Information, Wed: Contact for Information, Thu: Contact for Information, Fri: Contact for Information, Sat: Contact for Information, Sun: Contact for Information",,,,,,,,,,,,,,,
Crystal Leisure Centre,52.4563764,-2.1483321,Bell Street,Stourbridge,DY8 1AE,0138 4812910,"Mon: 07:45 - 20:00, Tue: 07:45 - 20:00, Wed: 07:45 - 20:00, Thu: 07:45 - 20:00, Fri: 07:45 - 21:00, Sat: 07:45 - 18:00, Sun: 07:45 - 18:00",,,,,,,,,,,,,,,
Cumberland Resource Centre,54.5594195,-1.2403885,Chelmsford Road,Middlesbrough,TS5 6PH,0164 2851717,"Mon: 08:30 - 16:00, Tue: 08:30 - 16:00, Wed: 08:30 - 16:00, Thu: 08:30 - 16:00, Fri: 08:30 - 16:00, Sat: Contact for Information, Sun: Contact for Information",,,,,,,,,,,,,,,
Cumbernauld Locality Support Service,55.9433603,-3.9975201,152 McGregor Road,Glasgow,G67 1JN,0123 6856170,"Mon: 08:45 - 16:45, Tue: 08:45 - 16:45, Wed: 08:45 - 16:45, Thu: 08:45 - 16:45, Fri: 08:45 - 16:15, Sat: Contact for Information, Sun: Contact for Information",,,,,,,,,,,,,,,
Cunningham Hub,51.7436413,-0.3127987,Cell Barnes Lane,St. Albans,AL1 5PX,0172 7841610,"Mon: 08:00 - 16:00, Tue: 08:00 - 16:00, Wed: 08:00 - 16:00, Thu: 08:00 - 16:00, Fri: 08:00 - 16:00, Sat: Contact for Information, Sun: Contact for Information",,,,,,,,,,,,,,,
Curve,52.6363595,-1.1269262,Rutland Street,Leicester,LE1 1SB,0116 2423560,"Mon: 08:30 - 23:00, Tue: 08:30 - 23:00, Wed: 08:30 - 23:00, Thu: 08:30 - 23:00, Fri: 08:30 - 23:00, Sat: 08:30 - 23:00, Sun: 08:30 - 23:00",,,,,,,,,,,,,,,
Cyclopark,51.4192652,0.3540586,The Tollgate,Gravesend,DA11 7NP,0147 4567145,"Mon: Contact for Information, Tue: Contact for Information, Wed: Contact for Information, Thu: Contact for Information, Fri: Contact for Information, Sat: Contact for Information, Sun: Contact for Information",,,,,,,,,,,,,,,
Dacorum Day Service,51.7487921,-0.4592534,The Jarman Centre,Hemel Hempsted,HP2 4JW,0144 2255903,"Mon: 09:00 - 15:30, Tue: 09:00 - 15:30, Wed: 09:00 - 15:30, Thu: 09:00 - 15:30, Fri: 09:00 - 15:30, Sat: Contact for Information, Sun: Contact for Information",,,,,,,,,,,,,,,
Dalkeith Library and Arts Centre,55.8928814,-3.0702388,2 White Hart Street,Dalkeith,EH22 1AE,0131 2713705,"Mon: 09:30 - 20:15, Tue: 13:00 - 20:15, Wed: 09:30 - 13:00, Thu: 09:30 - 20:15, Fri: 09:30 - 17:00, Sat: 09:30 - 13:00, Sun: Contact for Information",,,,,,,,,,,,,,,
Danes Camp Leisure Centre,52.2138362,-0.9111451,Clannell Road,Northampton,NN4 0RX,0160 4837200,"Mon: 06:45 - 10:00, Tue: 06:45 - 10:00, Wed: 06:45 - 10:00, Thu: 06:45 - 10:00, Fri: 06:45 - 10:00, Sat: 07:45 - 19:00, Sun: 07:45 - 19:00",,,,,,,,,,,,,,,
Darlington Memorial Hospital,54.5317527,-1.5646761,Outpatients Entrance B,Darlington,DL3 6HX,0132 5380100,"Mon: 08:00 - 17:00, Tue: 08:00 - 17:00, Wed: 08:00 - 17:00, Thu: 08:00 - 17:00, Fri: 08:00 - 17:00, Sat: 09:00 - 12:00, Sun: Contact for Information",,,,,,,,,,,,,,,
Darton Centre (The),53.5849746,-1.5344243,Huddersfield Road,Darton,S75 5ND,0122 6774621,"Mon: 09:00 - 17:00, Tue: 09:00 - 17:00, Wed: 09:00 - 17:00, Thu: 09:00 - 17:00, Fri: 09:00 - 17:00, Sat: Contact for Information, Sun: Contact for Information",,,,,,,,,,,,,,,
Darvel Primary School,55.6131092,-4.2812571,Campbell Street East,Kilmarnock,KA17 0BP,0156 0320257,"Mon: 09:00 - 15:00, Tue: 09:00 - 15:00, Wed: 09:00 - 15:00, Thu: 09:00 - 15:00, Fri: 09:00 - 15:00, Sat: Contact for Information, Sun: Contact for Information",,,,,,,,,,,,,,,
Deal Library Kent County Council,51.2231327,1.4032483,Broad Street,Deal,CT14 6ER,0300 0413131,"Mon: 09:00 - 18:00, Tue: 09:00 - 18:00, Wed: 09:00 - 18:00, Thu: 09:00 - 18:00, Fri: 09:00 - 18:00, Sat: 09:00 - 17:00, Sun: 10:00 - 16:00",,,,,,,,,,,,,,,
Debenhams,53.8153073,-3.0517591,Houndshill Centre,Blackpool,FY1 4HU,0125 3743010,"Mon: 09:00 - 17:30, Tue: 09:00 - 17:30, Wed: 09:00 - 17:30, Thu: 09:00 - 17:30, Fri: 09:00 - 17:30, Sat: 09:00 - 17:30, Sun: 10:30 - 16:30",,,,,,,,,,,,,,,
Deeping Leisure Centre (The),52.6741245,-0.2982944,Park Road,Peterborough,PE6 8NF,0177 8344072,"Mon: 06:30 - 22:00, Tue: 06:30 - 22:00, Wed: 06:30 - 22:00, Thu: 06:30 - 22:00, Fri: 06:30 - 22:00, Sat: Contact for Information, Sun: 07:30 - 22:00",,,,,,,,,,,,,,,
Deptford Lounge,51.4775881,-0.0244998,9 Giffin Street,London,SE8 4RJ,0208 3147288,"Mon: 08:00 - 22:00, Tue: 08:00 - 22:00, Wed: 08:00 - 22:00, Thu: 08:00 - 22:00, Fri: 08:00 - 22:00, Sat: 09:00 - 17:00, Sun: 10:00 - 19:17",,,,,,,,,,,,,,,
Dinton Pastures Country Park,51.4409338,-0.8686911,"Davis Street, Hurst",Wokingham,RG10 0TH,0118 9342016,"Mon: 10:00 - 16:00, Tue: 10:00 - 16:00, Wed: 10:00 - 16:00, Thu: 10:00 - 16:00, Fri: 10:00 - 16:00, Sat: 09:00 - 16:00, Sun: 09:00 - 16:00",,,,,,,,,,,,,,,
Discovery Museum,54.9688694,-1.6243756,Blandford House,Newcastle upon Tyne,NE1 4JA,0191 2326789,"Mon: 09:00 - 17:00, Tue: 09:00 - 17:00, Wed: 09:00 - 17:00, Thu: 09:00 - 17:00, Fri: 09:00 - 17:00, Sat: 10:00 - 17:00, Sun: 14:00 - 17:00",,,,,,,,,,,,,,,
Divis and the Black Mountain,54.6022677,-6.0445193,Divis Road,Belfast,BT17 0NG,0289 0825434,"Mon: 09:00 - 16:00, Tue: 09:00 - 16:00, Wed: 09:00 - 16:00, Thu: 09:00 - 16:00, Fri: 09:00 - 16:00, Sat: 10:00 - 16:00, Sun: 10:00 - 16:00",,,,,,,,,,,,,,,
Djanogly Community Leisure Centre,52.9665294,-1.1638252,Gregory Boulevard,Nottingham,NG7 6ND,0115 8762170,"Mon: 07:00 - 22:00, Tue: 07:00 - 22:00, Wed: 07:00 - 22:00, Thu: 07:00 - 22:00, Fri: 07:00 - 20:30, Sat: 08:30 - 18:00, Sun: 08:30 - 18:00",,,,,,,,,,,,,,,
Dolphin Centre,54.5237069,-1.5541321,Horsemarket,Darlington,DL1 5RP,0132 5388406,"Mon: Contact for Information, Tue: Contact for Information, Wed: Contact for Information, Thu: Contact for Information, Fri: Contact for Information, Sat: Contact for Information, Sun: Contact for Information",,,,,,,,,,,,,,,
Doncaster Civic Centre,53.5200134,-1.1344487,Doncaster Civic Centre,Doncaster,DN1 3EX,0130 2736000,"Mon: 09:00 - 17:00, Tue: 09:00 - 17:00, Wed: 09:00 - 17:00, Thu: 09:00 - 17:00, Fri: 09:00 - 17:00, Sat: Contact for Information, Sun: Contact for Information",,,,,,,,,,,,,,,
Dorcan Recreation Centre,51.5650102,-1.7246596,St Pauls Drive,Swindon,SN3 5DA,0179 3533763,"Mon: 09:15 - 22:00, Tue: 09:15 - 22:00, Wed: 09:15 - 22:00, Thu: 09:15 - 22:00, Fri: 09:15 - 22:00, Sat: 09:00 - 17:00, Sun: 09:00 - 17:00",,,,,,,,,,,,,,,
Dorchester Library and Learning Centre,50.7129962,-2.435619,Charles Street,Dorchester,DT1 1EE,0130 5224440,"Mon: 10:00 - 17:30, Tue: 09:30 - 19:00, Wed: 09:30 - 13:00, Thu: 09:30 - 17:00, Fri: 09:30 - 19:00, Sat: 09:00 - 16:00, Sun: Contact for Information",,,,,,,,,,,,,,,
Dorchester Sports,50.7087717,-2.4489082,Coburg Road,Dorchester,DT1 2HR,0130 5858400,"Mon: 07:00 - 22:00, Tue: 07:00 - 22:00, Wed: 07:00 - 22:00, Thu: 07:00 - 22:00, Fri: 07:00 - 22:00, Sat: 07:00 - 17:00, Sun: 07:00 - 22:00",,,,,,,,,,,,,,,
Dover Gateway,51.1254902,1.3139268,71 Castle Street,Dover,CT16 1PD,0130 4821199,"Mon: 09:00 - 17:00, Tue: 09:00 - 17:00, Wed: 09:00 - 17:00, Thu: 09:00 - 17:00, Fri: 09:00 - 17:00, Sat: 09:00 - 13:00, Sun: Contact for Information",,,,,,,,,,,,,,,
Downside Community and Learning Centre,50.6981245,-1.2836693,Furrlongs,Newport,PO30 2AX,0198 3524340,"Mon: 09:00 - 18:00, Tue: 09:00 - 18:00, Wed: 09:00 - 18:00, Thu: 09:00 - 18:00, Fri: 09:00 - 18:00, Sat: 09:00 - 13:00, Sun: Contact for Information",,,,,,,,,,,,,,,
Dr Gray's Hospital,57.6460481,-3.3284899,Elgin,Elgin,IV30 1SN,0345 4566000,"Mon: 05:30 - 22:00, Tue: 05:30 - 22:00, Wed: 05:30 - 22:00, Thu: 05:30 - 22:00, Fri: 05:30 - 22:00, Sat: 05:30 - 22:00, Sun: 05:30 - 22:00",,,,,,,,,,,,,,,
Drake Circus Shopping Centre,50.3722773,-4.1378807,1 Charles Street,Plymouth,PL1 1EA,0175 2223030,"Mon: 08:00 - 18:00, Tue: 08:00 - 18:00, Wed: 08:00 - 18:00, Thu: 08:00 - 18:00, Fri: 08:00 - 18:00, Sat: 08:00 - 18:00, Sun: 10:30 - 16:30",,,,,,,,,,,,,,,
Driffield Leisure Centre,54.0106462,-0.4274849,Bridlington Road,Driffield,YO25 5HZ,0137 7257480,"Mon: 06:30 - 21:00, Tue: 06:30 - 21:00, Wed: 06:30 - 21:00, Thu: 06:30 - 21:00, Fri: 06:30 - 21:00, Sat: 08:30 - 18:00, Sun: 08:30 - 18:00",,,,,,,,,,,,,,,
Drumbrae Leisure Centre,55.9561888,-3.2939475,30 Dumbrae Terrace,Edinburgh,EH4 7SE,0131 3127957,"Mon: 07:00 - 22:00, Tue: 07:00 - 22:00, Wed: 07:00 - 22:00, Thu: 07:00 - 22:00, Fri: 07:00 - 22:00, Sat: 09:00 - 19:00, Sun: 09:00 - 21:00",,,,,,,,,,,,,,,
Dryden Professional Development Centre,54.9430957,-1.5929232,Evistones Road,Gateshead,NE9 5UR,0191 4338501,"Mon: 08:30 - 14:00, Tue: 08:30 - 14:00, Wed: 08:30 - 14:00, Thu: 08:30 - 14:00, Fri: 08:30 - 14:00, Sat: Contact for Information, Sun: Contact for Information",,,,,,,,,,,,,,,
Dudley Archives and Local History Centre,52.5225362,-2.0739973,Tipton Road,Dudley,DY1 4SQ,0138 4812770,"Mon: 09:00 - 17:00, Tue: 09:00 - 17:00, Wed: 09:00 - 17:00, Thu: 09:30 - 19:00, Fri: 09:00 - 17:00, Sat: 09:00 - 17:00, Sun: Contact for Information",,,,,,,,,,,,,,,
Dudley Town Centre Toilets,52.5117676,-2.0808621,256 Castle Street,Dudley,DY1 1LQ,,"Mon: 07:30 - 17:30, Tue: 07:30 - 17:30, Wed: 07:30 - 17:30, Thu: 07:30 - 17:30, Fri: 07:30 - 17:30, Sat: 07:30 - 17:30, Sun: Contact for Information",,,,,,,,,,,,,,,
Duloch Leisure Centre,56.062052,-3.4048739,Nightingale Place,Dunfermline,KY11 8LW,0138 3602209,"Mon: 08:30 - 21:30, Tue: 08:30 - 21:30, Wed: 08:30 - 21:30, Thu: 08:30 - 21:30, Fri: 08:30 - 21:30, Sat: 08:30 - 17:00, Sun: 08:30 - 17:00",,,,,,,,,,,,,,,
Dumbarton Centre,55.9411957,-4.5558952,3 Bruce Street,Dumbarton,G82 1HY,0138 9608164,"Mon: 09:00 - 17:00, Tue: 09:00 - 17:00, Wed: 09:00 - 17:00, Thu: 09:00 - 17:00, Fri: 09:00 - 17:00, Sat: Contact for Information, Sun: Contact for Information",,,,,,,,,,,,,,,
Dundee College,56.4727294,-2.9120921,Gardyne Campus,Dundee,DD5 1NY,0138 2834908,"Mon: 08:00 - 20:00, Tue: 08:00 - 20:00, Wed: 08:00 - 20:00, Thu: 08:00 - 20:00, Fri: 08:00 - 20:00, Sat: Contact for Information, Sun: Contact for Information",,,,,,,,,,,,,,,
Durham University,54.7688382,-1.5720087,Stockton Road,Durham,DH1 3LE,0191 3349111,"Mon: 09:00 - 17:00, Tue: 09:00 - 17:00, Wed: 09:00 - 17:00, Thu: 09:00 - 17:00, Fri: 09:00 - 17:00, Sat: Contact for Information, Sun: Contact for Information",,,,,,,,,,,,,,,
"Ealing, Hammersmith and West London College - Acton Campus",51.507723,-0.2768344,Gunnersbury Lane,Acton,W3 8EA,0779 0358861,"Mon: 08:30 - 19:00, Tue: 08:30 - 19:00, Wed: 08:30 - 19:00, Thu: 08:30 - 19:00, Fri: 08:30 - 19:00, Sat: Contact for Information, Sun: Contact for Information",,,,,,,,,,,,,,,
East Ham Leisure Centre,51.5334236,0.0589541,324 Barking Rd,London,E6 2RT,0300 1240123,"Mon: 07:00 - 22:00, Tue: 07:00 - 22:00, Wed: 07:00 - 22:00, Thu: 07:00 - 22:00, Fri: 07:00 - 22:00, Sat: 08:00 - 17:00, Sun: 08:00 - 17:00",,,,,,,,,,,,,,,
East Midlands Airport,52.8264721,-1.3306269,Castle Donington,Derby,DE74 2SA,0871 9199000,"Mon: 00:00 - 23:59, Tue: 00:00 - 23:59, Wed: 00:00 - 23:59, Thu: 00:00 - 23:59, Fri: 00:00 - 23:59, Sat: 00:00 - 23:59, Sun: 00:00 - 23:59",,,,,,,,,,,,,,,
Eastleigh Borough Council,50.9707851,-1.3515015,Eastleigh House,Eastleigh,SO50 9YN,0238 0688000,"Mon: 08:30 - 17:00, Tue: 08:30 - 17:00, Wed: 08:30 - 17:00, Thu: 08:30 - 17:00, Fri: 08:30 - 17:00, Sat: Contact for Information, Sun: Contact for Information",,,,,,,,,,,,,,,
Easy Care Systems Limited,50.900137,-1.3814707,5 Lower Vicarage Road,Southampton,SO19 7RJ,0238 0420678,"Mon: 09:00 - 17:00, Tue: 09:00 - 17:00, Wed: 09:00 - 17:00, Thu: 09:00 - 17:00, Fri: 09:00 - 17:00, Sat: Contact for Information, Sun: Contact for Information",,,,,,,,,,,,,,,
Ebbw Vale Sports Centre,51.7715014,-3.2017537,Lime Avenue,Ebbw Vale,NP23 6GL,0149 5357777,"Mon: 06:30 - 21:30, Tue: 06:30 - 21:30, Wed: 06:30 - 21:30, Thu: 06:30 - 21:30, Fri: 06:30 - 21:30, Sat: 08:00 - 16:00, Sun: 08:00 - 20:00",,,,,,,,,,,,,,,
Eccleshill Leisure Centre,53.8279506,-1.7146812,Harrogate Road,Bradford,BD10 0QE,0127 4612329,"Mon: 07:00 - 21:00, Tue: 09:15 - 21:30, Wed: 11:00 - 21:00, Thu: 07:00 - 21:30, Fri: 09:15 - 19:45, Sat: 08:30 - 17:30, Sun: 09:00 - 16:15",,,,,,,,,,,,,,,
Eden Centre (The),51.2095612,0.0813843,Four Elms Road,Edenbridge,TN8 6BY,0162 2221121,"Mon: 09:00 - 18:00, Tue: 09:00 - 18:00, Wed: 09:00 - 18:00, Thu: 09:00 - 18:00, Fri: 09:00 - 18:00, Sat: Contact for Information, Sun: Contact for Information",,,,,,,,,,,,,,,
Westfield London,51.5079609,-0.2193067,Ariel Way,London,W12 7GF,0203 3702300,"Mon: 10:00 - 22:00, Tue: 10:00 - 22:00, Wed: 10:00 - 22:00, Thu: 10:00 - 22:00, Fri: 10:00 - 22:00, Sat: 10:00 - 22:00, Sun: 12:00 - 18:00",,,,,,,,,,,,,,,
Eden Project,50.361683,-4.743951,Bodelva,Cornwall,PL24 2SG,0172 6811911,"Mon: 09:30 - 16:00, Tue: 09:30 - 16:00, Wed: 09:30 - 16:00, Thu: 09:30 - 16:00, Fri: 09:30 - 16:00, Sat: 09:30 - 16:00, Sun: 09:30 - 16:00",,,,,,,,,,,,,,,
Edenbridge Leisure Centre,51.1997181,0.0648093,Stangrove Park,Edenbridge,TN8 5LU,0189 2865665,"Mon: 06:00 - 22:30, Tue: 06:00 - 22:30, Wed: 06:00 - 22:30, Thu: 06:00 - 22:30, Fri: 06:00 - 22:30, Sat: 08:00 - 18:00, Sun: 08:00 - 18:00",,,,,,,,,,,,,,,
Edinburgh College - Granton Campus - Catering Block,55.9773321,-3.244953,350 West Granton Road,Edinburgh,EH5 1QE,0131 6694400,"Mon: 08:30 - 17:00, Tue: 08:30 - 17:00, Wed: 08:30 - 17:00, Thu: 08:30 - 17:00, Fri: 08:30 - 17:00, Sat: Contact for Information, Sun: Contact for Information",,,,,,,,,,,,,,,
Edinburgh College - Granton Campus - Sports Block,55.9773321,-3.244953,350 West Granton Road,Edinburgh,EH5 1QE,0131 6694400,"Mon: 08:30 - 17:00, Tue: 08:30 - 17:00, Wed: 08:30 - 17:00, Thu: 08:30 - 17:00, Fri: 08:30 - 17:00, Sat: Contact for Information, Sun: Contact for Information",,,,,,,,,,,,,,,
Eldon Square Shopping Centre,54.9743851,-1.6171889,Percy Street,Newcastle upon Tyne,NE1 7JB,0191 2611891,"Mon: 09:00 - 18:00, Tue: 09:00 - 18:00, Wed: 09:00 - 18:00, Thu: 09:00 - 18:00, Fri: 09:00 - 18:00, Sat: 10:00 - 18:00, Sun: 11:00 - 17:00",,,,,,,,,,,,,,,
Eltham Centre,51.4513215,0.0573347,2 Archery Road,Eltham,SE9 1HA,0208 9214344,"Mon: 07:00 - 22:00, Tue: 07:00 - 22:00, Wed: 07:00 - 22:00, Thu: 07:00 - 22:00, Fri: 07:00 - 22:00, Sat: 09:00 - 17:00, Sun: 09:00 - 17:00",,,,,,,,,,,,,,,
Elvaston Castle Country Park,52.8940887,-1.3884932,Borrowash Road,Elvaston,DE72 3EP,0162 9533870,"Mon: Contact for Information, Tue: Contact for Information, Wed: Contact for Information, Thu: Contact for Information, Fri: Contact for Information, Sat: Contact for Information, Sun: Contact for Information",,,,,,,,,,,,,,,
Elysium Community Care,53.7853532,-2.4057723,1a Barnmeadow Lane,Great Harwood,BB6 7AB,0125 4877755,"Mon: 08:30 - 17:00, Tue: 08:30 - 17:00, Wed: 08:30 - 17:00, Thu: 08:30 - 17:00, Fri: 08:30 - 17:00, Sat: 09:00 - 17:00, Sun: Contact for Information",,,,,,,,,,,,,,,
Attenborough Arts Centre (Formerly Embrace Arts),52.6254963,-1.1277756,University of Leicester,Leicester,LE1 7HA,0116 2522455,"Mon: Contact for Information, Tue: Contact for Information, Wed: Contact for Information, Thu: Contact for Information, Fri: Contact for Information, Sat: Contact for Information, Sun: Contact for Information",,,,,,,,,,,,,,,
Energise,53.9486438,-1.1318107,Cornlands Road,York,YO24 3DX,0190 4552424,"Mon: 07:00 - 22:00, Tue: 07:00 - 22:00, Wed: 07:00 - 22:00, Thu: 07:00 - 22:00, Fri: 07:00 - 22:00, Sat: 08:00 - 18:00, Sun: 08:00 - 18:00",,,,,,,,,,,,,,,
Eureka! The National Children's Museum,53.7209634,-1.8548387,Discovery Road,Halifax,HX1 2JNE,0142 2330069,"Mon: Contact for Information, Tue: 10:00 - 16:00, Wed: 10:00 - 16:00, Thu: 10:00 - 16:00, Fri: 10:00 - 16:00, Sat: 10:00 - 17:00, Sun: 10:00 - 17:00",,,,,,,,,,,,,,,
Europa Pools,53.3924671,-3.0252077,Conway Street,Wirral,CH41 6RN,0151 6665678,"Mon: 07:00 - 22:00, Tue: 07:00 - 22:00, Wed: 07:00 - 22:00, Thu: 07:00 - 22:00, Fri: 07:00 - 22:00, Sat: 07:00 - 18:00, Sun: 07:00 - 18:00",,,,,,,,,,,,,,,
Eurotunnel Passenger Terminal Folkestone,51.0944806,1.1065752,Ashford Road,Folkestone,CT18 8XX,0844 3353535,"Mon: 00:00 - 23:59, Tue: 00:00 - 23:59, Wed: 00:00 - 23:59, Thu: 00:00 - 23:59, Fri: 00:00 - 23:59, Sat: 00:00 - 23:59, Sun: 00:00 - 23:59",,,,,,,,,,,,,,,
EventCity,53.4656969,-2.3416611,Phoenix Way,Manchester,M41 7TB,0161 8709800,"Mon: 00:00 - 23:59, Tue: 00:00 - 23:59, Wed: 00:00 - 23:59, Thu: 00:00 - 23:59, Fri: 00:00 - 23:59, Sat: 00:00 - 23:59, Sun: 00:00 - 23:59",,,,,,,,,,,,,,,
Everyman Theatre,53.4034542,-2.9693064,Hope Street,Liverpool,L19BH,0151 7083700,"Mon: 08:30 - 23:00, Tue: 08:30 - 23:00, Wed: 08:30 - 23:00, Thu: 08:30 - 23:00, Fri: 08:30 - 23:00, Sat: 08:30 - 23:00, Sun: 08:30 - 23:00",,,,,,,,,,,,,,,
Excel London,51.5084306,0.0255594,1 Western Gateway,London,E16 1EX,0207 0695000,"Mon: 08:00 - 18:00, Tue: 08:00 - 18:00, Wed: 08:00 - 18:00, Thu: 08:00 - 18:00, Fri: 08:00 - 18:00, Sat: 08:00 - 18:00, Sun: 08:00 - 18:00",,,,,,,,,,,,,,,
Explore York Library Learning Centre,53.9612215,-1.0854551,Museum Street,York,YO1 7DS,0190 4552828,"Mon: 09:00 - 20:00, Tue: 09:00 - 20:00, Wed: 09:00 - 20:00, Thu: 09:00 - 20:00, Fri: 09:00 - 18:00, Sat: 09:00 - 17:00, Sun: 11:00 - 16:00",,,,,,,,,,,,,,,
Farnworth Leisure Centre,53.5472672,-2.3978645,Brackley Street,Bolton,BL4 9DZ,0120 4334477,"Mon: 07:00 - 21:00, Tue: 07:00 - 22:00, Wed: 07:00 - 22:00, Thu: 07:00 - 22:00, Fri: 07:00 - 21:00, Sat: 09:00 - 17:30, Sun: 09:00 - 17:30",,,,,,,,,,,,,,,
Felgains Care & Mobility,52.0740475,1.1395277,33 Knightsdale Road,Ipswich,IP1 4JJ,0147 3741144,"Mon: 08:00 - 16:00, Tue: 08:00 - 16:00, Wed: 08:00 - 16:00, Thu: 08:00 - 16:00, Fri: 08:00 - 16:00, Sat: Contact for Information, Sun: Contact for Information",,,,,,,,,,,,,,,
Fernhill Community Centre,55.8083608,-4.2063428,12 Auchenclarie Drive,Glasgow,"G73 4EQ,",0141 6343158,"Mon: 09:00 - 22:00, Tue: 09:00 - 22:00, Wed: 09:00 - 22:00, Thu: 09:00 - 22:00, Fri: 09:00 - 22:00, Sat: 09:00 - 12:00, Sun: 09:00 - 12:00",,,,,,,,,,,,,,,
Festival Market Public Toilet,54.0710506,-2.8735563,Festival Market,Morecambe,LA4 4DW,0015  414251,"Mon: 09:30 - 17:00, Tue: 09:30 - 17:00, Wed: 09:30 - 17:00, Thu: 09:30 - 17:00, Fri: 09:30 - 17:00, Sat: Contact for Information, Sun: Contact for Information",,,,,,,,,,,,,,,
Fieldhead Co-location Centre,53.7414475,-1.661331,Fieldhead Crescent,Birstall,WF17 9BP,0148 4225711,"Mon: 08:30 - 17:00, Tue: 08:30 - 17:00, Wed: 08:30 - 17:00, Thu: 08:30 - 17:00, Fri: 08:30 - 17:00, Sat: Contact for Information, Sun: Contact for Information",,,,,,,,,,,,,,,
Finchley Memorial Hospital,51.6074433,-0.1766536,Granville Road,London,N12 0JE,0208 3497500,"Mon: 00:00 - 23:59, Tue: 00:00 - 23:59, Wed: 00:00 - 23:59, Thu: 00:00 - 23:59, Fri: 00:00 - 23:59, Sat: 00:00 - 23:59, Sun: 00:00 - 23:59",,,,,,,,,,,,,,,
Fingal Centre (The),57.4081968,-6.2016206,Portree High School,Isle of Skye,IV51 9ET,0147 8614819,"Mon: Contact for Information, Tue: Contact for Information, Wed: Contact for Information, Thu: Contact for Information, Fri: Contact for Information, Sat: 09:00 - 16:00, Sun: Contact for Information",,,,,,,,,,,,,,,
First Direct Arena Leeds,53.804089,-1.542883,Arena Way,Leeds,LS2 8BY,0844 2481585,"Mon: 08:00 - 22:00, Tue: 08:00 - 22:00, Wed: 08:00 - 22:00, Thu: 08:00 - 22:00, Fri: 08:00 - 22:00, Sat: 08:00 - 22:00, Sun: 08:00 - 22:00",,,,,,,,,,,,,,,
Flying Scotsman Centre (The),53.5191704,-1.1381087,St. Sepulchre Gate West,Doncaster,DN1 3AP,0130 2645544,"Mon: 08:00 - 21:30, Tue: 08:00 - 21:30, Wed: 08:00 - 21:30, Thu: 08:00 - 21:30, Fri: 08:00 - 21:30, Sat: 08:00 - 20:00, Sun: 08:00 - 20:00",,,,,,,,,,,,,,,
Folkestone Sports Centre,51.0859659,1.1701847,Radnor Park Avenue,Folkestone,CT19 5HX,0130 3850222,"Mon: 06:30 - 22:00, Tue: 06:30 - 22:00, Wed: 06:30 - 22:00, Thu: 06:30 - 22:00, Fri: 06:30 - 22:00, Sat: 07:00 - 19:00, Sun: 07:00 - 19:00",,,,,,,,,,,,,,,
Forest Recreation Ground,52.9653655,-1.1600876,Gregory Boulevard,"Nottingham,",NG76HB,0750 8439050,"Mon: 09:00 - 16:00, Tue: 09:00 - 16:00, Wed: 09:00 - 16:00, Thu: 09:00 - 16:00, Fri: 09:00 - 16:00, Sat: 09:00 - 16:00, Sun: 09:00 - 16:00",,,,,,,,,,,,,,,
Forge Mill Farm,52.5348069,-1.9669736,Forge Lane,West Bromwich,B71 3SZ,0121 5532147,"Mon: 10:00 - 16:00, Tue: 10:00 - 16:00, Wed: 10:00 - 16:00, Thu: 10:00 - 16:00, Fri: 10:00 - 16:00, Sat: 10:00 - 16:00, Sun: 10:00 - 16:00",,,,,,,,,,,,,,,
Forum (The),54.3411854,-1.4308075,Bullamoor Road,Northallerton,DL6 1LP,0160 9776230,"Mon: 09:00 - 20:00, Tue: 09:00 - 20:00, Wed: 09:00 - 20:00, Thu: 09:00 - 20:00, Fri: 09:00 - 20:00, Sat: 14:00 - 22:00, Sun: 14:00 - 22:00",,,,,,,,,,,,,,,
Forum (The),51.5387393,0.7106248,Elmer Square,Southend on Sea,SS1 1NS,0170 2215011,"Mon: 08:00 - 22:00, Tue: 08:00 - 22:00, Wed: 08:00 - 22:00, Thu: 08:00 - 22:00, Fri: 08:00 - 22:00, Sat: 08:00 - 18:00, Sun: 11:00 - 17:00",,,,,,,,,,,,,,,
Francis Scaife Sports Centre,53.9286457,-0.7733791,Burnby Lane,Pocklington,YO42 2QE,0175 9305052,"Mon: 07:00 - 22:00, Tue: 07:00 - 22:00, Wed: 07:00 - 22:00, Thu: 07:00 - 22:00, Fri: 07:00 - 22:00, Sat: 08:30 - 17:00, Sun: 08:00 - 21:00",,,,,,,,,,,,,,,
Free Church Hall,51.9775377,-0.2245823,Gernon Road,Letchworth,SG6 3HS,0146 2487451,"Mon: 08:30 - 16:30, Tue: 08:30 - 16:30, Wed: 08:30 - 16:30, Thu: 08:30 - 16:30, Fri: 08:30 - 16:30, Sat: Contact for Information, Sun: Contact for Information",,,,,,,,,,,,,,,
Freeman's Quay Leisure Centre,54.7776222,-1.5760447,Freeman's Quay,Durham,DH1 1SW,0300 0268488,"Mon: 06:30 - 21:30, Tue: 06:30 - 21:30, Wed: 06:30 - 21:30, Thu: 06:30 - 21:30, Fri: 06:30 - 21:30, Sat: 08:00 - 19:30, Sun: 08:00 - 19:30",,,,,,,,,,,,,,,
Freemantle and Shirley Community Centre,50.918187,-1.4302643,Randolph Street,Southampton,SO15 3HF,0238 0361570,"Mon: 09:00 - 16:00, Tue: 09:00 - 16:00, Wed: 09:00 - 16:00, Thu: 09:00 - 16:00, Fri: 09:00 - 16:00, Sat: Contact for Information, Sun: Contact for Information",,,,,,,,,,,,,,,
Frenchgate Shopping Centre,53.52282,-1.1363917,St. Sepulchre Gate,Doncaster,DN1 1SW,0130 2368335,"Mon: 09:00 - 17:30, Tue: 09:00 - 17:30, Wed: 09:00 - 17:30, Thu: 09:00 - 17:30, Fri: 09:00 - 17:30, Sat: 09:00 - 17:30, Sun: 10:00 - 16:00",,,,,,,,,,,,,,,
Friary (The),52.6811341,-1.8318501,Lichfield,Staffordshire,WS13 6QE,,"Mon: 08:00 - 17:00, Tue: 08:00 - 17:00, Wed: , Wednesday 18 May to , Wednesday 2, Thu: 08:00 - 17:00, Fri: 08:00 - 17:00, Sat: 08:00 - 17:00, Sun: 08:00 - 17:00",,,,,,,,,,,,,,,
Friary Gardeners,50.8815663,0.5873463,Ore Place Farm,Hastings,TN34 2RA,0142 4752555,"Mon: 08:00 - 16:00, Tue: 08:00 - 16:00, Wed: 08:00 - 16:00, Thu: 08:00 - 16:00, Fri: 08:00 - 16:00, Sat: Contact for Information, Sun: Contact for Information",,,,,,,,,,,,,,,
Gallery Cafe & Shop,53.7999471,-1.547724,The Headrow,Leeds,LS1 3AA,0113 3957116,"Mon: 10:00 - 17:00, Tue: 10:00 - 17:00, Wed: 12:00 - 17:00, Thu: 10:00 - 17:00, Fri: 10:00 - 17:00, Sat: 10:00 - 17:00, Sun: 13:00 - 17:00",,,,,,,,,,,,,,,
Garden City Day Service,51.7940093,-0.1930079,108 Ludwick Way,Welwyn Garden City,AL7 3QE,0170 7373259,"Mon: 09:00 - 16:00, Tue: 09:00 - 16:00, Wed: 09:00 - 16:00, Thu: 09:00 - 16:00, Fri: 09:00 - 16:00, Sat: Contact for Information, Sun: Contact for Information",,,,,,,,,,,,,,,
Garstang Public Toilets,53.901077,-2.7756744,Cherestanc Square,Garstang,PR3 1EF,0199 5604862,"Mon: 08:00 - 21:00, Tue: 08:00 - 21:00, Wed: 08:00 - 21:00, Thu: 08:00 - 21:00, Fri: 08:00 - 21:00, Sat: 08:00 - 21:00, Sun: 09:30 - 16:00",,,,,,,,,,,,,,,
Garwnant Visitor Centre,51.7947223,-3.453986,Coed Taf Fawr,Merthyr Tydfil,CF48 2HU,0778 9747127,"Mon: 10:00 - 16:00, Tue: 10:00 - 16:00, Wed: 10:00 - 16:00, Thu: 10:00 - 16:00, Fri: 10:00 - 16:00, Sat: 10:00 - 16:00, Sun: 10:00 - 16:00",,,,,,,,,,,,,,,
Gateshead @ Leam Lane,54.940004,-1.5461254,129 Cotemede,Gateshead,NE10 8QH,0191 4382693,"Mon: 08:00 - 18:30, Tue: 08:00 - 18:30, Wed: 08:00 - 18:30, Thu: 08:00 - 18:30, Fri: 08:00 - 18:30, Sat: 09:00 - 12:00, Sun: Contact for Information",,,,,,,,,,,,,,,
Gateshead Central Library and Caedmon Hall,54.9512219,-1.6008735,Prince Consort Road,Gateshead,NE8 4LN,0191 4338400,"Mon: 08:00 - 19:00, Tue: 08:00 - 19:00, Wed: 08:00 - 19:00, Thu: 08:00 - 19:00, Fri: 08:00 - 19:00, Sat: 09:00 - 12:00, Sun: 09:00 - 12:00",,,,,,,,,,,,,,,
Gateshead Civic Centre,54.9590473,-1.6032949,Gateshead Council Regent Street,Gateshead,NE8 1HH,0191 4333000,"Mon: 08:00 - 18:30, Tue: 08:00 - 18:30, Wed: 08:00 - 18:30, Thu: 08:00 - 18:30, Fri: 08:00 - 18:30, Sat: 09:00 - 12:00, Sun: 09:00 - 12:00",,,,,,,,,,,,,,,
Gateshead Leisure Centre,54.9544035,-1.6052881,Alexandra Road,Gateshead,NE8 4JA,0191 4335733,"Mon: 08:00 - 20:30, Tue: 08:00 - 20:30, Wed: 08:00 - 20:30, Thu: 08:00 - 20:30, Fri: 08:00 - 20:30, Sat: 09:00 - 17:00, Sun: 09:00 - 17:00",,,,,,,,,,,,,,,
Gatwick Airport North Terminal,51.1604723,-0.1778582,Gatwick Airport North Terminal,West Sussex,RH6 0NP,0772 5213822,"Mon: 00:00 - 23:59, Tue: 00:00 - 23:59, Wed: 00:00 - 23:59, Thu: 00:00 - 23:59, Fri: 00:00 - 23:59, Sat: 00:00 - 23:59, Sun: 00:00 - 23:59",,,,,,,,,,,,,,,
Gatwick Airport South Terminal,51.156117,-0.163,Gatwick Airport South Terminal,West Sussex,RH6 0NP,0788 9633929,"Mon: 00:00 - 23:59, Tue: 00:00 - 23:59, Wed: 00:00 - 23:59, Thu: 00:00 - 23:59, Fri: 00:00 - 23:59, Sat: 00:00 - 23:59, Sun: 00:00 - 23:59",,,,,,,,,,,,,,,
Genesis Family Entertainment Centre,53.102427,-1.3449478,32-46 King Street,Alfreton,DE55 7DQ,0177 3522422,"Mon: 09:00 - 22:00, Tue: 09:00 - 22:00, Wed: 09:00 - 22:00, Thu: 09:00 - 22:00, Fri: 09:00 - 22:00, Sat: 10:00 - 22:00, Sun: 11:00 - 20:00",,,,,,,,,,,,,,,
George Best Belfast City Airport,54.6146219,-5.8710579,George Best Belfast City Airport,Belfast,BT3 9JH,0289 0939093,"Mon: 04:30 - 21:30, Tue: 04:30 - 21:30, Wed: 04:30 - 21:30, Thu: 04:30 - 21:30, Fri: 04:30 - 21:30, Sat: 04:30 - 21:30, Sun: 04:30 - 21:30",,,,,,,,,,,,,,,
George Carnall Leisure Centre,53.4580941,-2.342244,Kingsway Park,Manchester,M41 7FJ,0161 7492555,"Mon: 08:15 - 22:00, Tue: 08:15 - 22:00, Wed: 08:15 - 22:00, Thu: 08:15 - 22:00, Fri: 08:15 - 22:00, Sat: 08:15 - 17:15, Sun: 08:15 - 17:15",,,,,,,,,,,,,,,
Giants Causeway Visitor Centre,55.2334099,-6.5169525,60 Causeway Road,Bushmills,BT57 8SU,0282 0731855,"Mon: , Tue: , Wed: , Thu: , Fri: , Sat: , Sun: ",,,,,,,,,,,,,,,
Glen Loch Centre,56.6518004,-2.8726528,Whitehills Hospitals,Forfar,DD8 3DY,0130 7475222,"Mon: 09:00 - 17:00, Tue: 09:00 - 17:00, Wed: 09:00 - 17:00, Thu: 09:00 - 17:00, Fri: 09:00 - 17:00, Sat: Contact for Information, Sun: Contact for Information",,,,,,,,,,,,,,,
Gleneagles Day Opportunities,56.378592,-3.4383477,Gleneagles Road,Perth,PH2 0AW,0173 8472345,"Mon: 09:00 - 15:45, Tue: 09:00 - 15:45, Wed: 09:00 - 15:45, Thu: 09:00 - 15:45, Fri: 09:00 - 15:45, Sat: Contact for Information, Sun: Contact for Information",,,,,,,,,,,,,,,
"Goodwin Centre, The Hooper Building",53.7446131,-0.3352729,Guildhall Road,Hull,HU1 1HL,0148 2313883,"Mon: 08:30 - 17:00, Tue: 08:30 - 17:00, Wed: 08:30 - 17:00, Thu: 08:30 - 17:00, Fri: 08:30 - 17:00, Sat: 10:00 - 16:00, Sun: Contact for Information",,,,,,,,,,,,,,,
Goole Leisure Centre,53.7027501,-0.8689516,North Street,Goole,DN14 5QX,0140 5769005,"Mon: 07:00 - 23:00, Tue: 07:00 - 23:00, Wed: 07:00 - 23:00, Thu: 07:00 - 23:00, Fri: 07:00 - 23:00, Sat: 08:00 - 23:00, Sun: 08:00 - 23:00",,,,,,,,,,,,,,,
Gosforth Pool,55.0112467,-1.6308477,Regent Farm Road,Gosforth,NE3 3HD,0191 2843696,"Mon: Contact for Information, Tue: Contact for Information, Wed: Contact for Information, Thu: Contact for Information, Fri: Contact for Information, Sat: Contact for Information, Sun: Contact for Information",,,,,,,,,,,,,,,
Gracious Street Methodist Church Centre,54.0071589,-1.466349,Gracious Street,Knaresborough,HG5 8DA,0142 3863298,"Mon: 09:00 - 16:00, Tue: 09:00 - 16:00, Wed: 09:00 - 16:00, Thu: 09:00 - 16:00, Fri: 09:00 - 16:00, Sat: Contact for Information, Sun: Contact for Information",,,,,,,,,,,,,,,
Grange Academy Campus,55.6071845,-4.5110932,Beech Avenue,Kilmarnock,KA1 2EN,0156 3549988,"Mon: 09:00 - 15:00, Tue: 09:00 - 15:00, Wed: 09:00 - 15:00, Thu: 09:00 - 15:00, Fri: 09:00 - 15:00, Sat: Contact for Information, Sun: Contact for Information",,,,,,,,,,,,,,,
Gravesham Gateway,51.4397835,0.369012,Windmill Street,Gravesend,DA12 1AU,0147 4564422,"Mon: 08:00 - 20:00, Tue: 08:00 - 20:00, Wed: 08:00 - 20:00, Thu: 08:00 - 20:00, Fri: 08:00 - 20:00, Sat: 08:00 - 17:00, Sun: 10:00 - 16:00",,,,,,,,,,,,,,,
Thurrock Lifestyle Solutions - Grays Locality Base,51.4777533,0.3246459,13-15 Clarence Road,Thurrock,RM17 6QJ,0137 5374996,"Mon: 09:00 - 17:00, Tue: 09:00 - 17:00, Wed: 09:00 - 17:00, Thu: 09:00 - 17:00, Fri: 09:00 - 17:00, Sat: Contact for Information, Sun: Contact for Information",,,,,,,,,,,,,,,
Great Dunmow Leisure Centre,51.8816266,0.3530496,Parsonage Downs,Dunmow,CM6 2AT,0137 1878690,"Mon: 06:00 - 22:00, Tue: 06:00 - 22:00, Wed: 06:00 - 22:00, Thu: 06:00 - 22:00, Fri: 06:00 - 22:00, Sat: 07:00 - 19:00, Sun: 07:00 - 20:00",,,,,,,,,,,,,,,
Great Ormond Street Hospital (Facility 1),51.5225668,-0.120241,Great Ormond Street,London,WC1N 3JH,0207 4059200,"Mon: 00:00 - 23:59, Tue: 00:00 - 23:59, Wed: 00:00 - 23:59, Thu: 00:00 - 23:59, Fri: 00:00 - 23:59, Sat: 00:00 - 23:59, Sun: 00:00 - 23:59",,,,,,,,,,,,,,,
Great Yarmouth: Marina Leisure and Fitness Centre,52.6043048,1.7371803,Marina Leisure & Fitness Centre,Great Yarmouth,NR30 2ER,0149 3851521,"Mon: 06:30 - 22:00, Tue: 06:30 - 22:00, Wed: 06:30 - 22:00, Thu: 06:30 - 22:00, Fri: 06:30 - 22:00, Sat: 08:30 - 17:30, Sun: 08:30 - 20:00",,,,,,,,,,,,,,,
Greyfriars,54.405987,-1.7348379,1-40 Flints Terrace,Richmond,DL10 4DQ,0370 1924991,"Mon: 09:00 - 15:30, Tue: 09:00 - 15:30, Wed: 09:00 - 15:30, Thu: 09:00 - 15:30, Fri: 09:00 - 15:30, Sat: Contact for Information, Sun: Contact for Information",,,,,,,,,,,,,,,
Greyhound Street,52.9538434,-1.1492131,Greyhound Street Market Square,Nottingham,NG1 2DP,,"Mon: 07:00 - 20:00, Tue: 07:00 - 20:00, Wed: 07:00 - 20:00, Thu: 07:00 - 20:00, Fri: 07:00 - 20:00, Sat: 07:00 - 20:00, Sun: 07:00 - 20:00",,,,,,,,,,,,,,,
Grosvenor Park,53.1901915,-2.8816701,The Pavilion,Chester,CH1 1QQ,0300 1237026,"Mon: Contact for Information, Tue: Contact for Information, Wed: Contact for Information, Thu: Contact for Information, Fri: Contact for Information, Sat: Contact for Information, Sun: Contact for Information",,,,,,,,,,,,,,,
Brangwyn Hall,51.6139666,-3.9604432,Brangwyn Hall,Swansea,SA1 4PE,0179 2635432,"Mon: Contact for Information, Tue: Contact for Information, Wed: Contact for Information, Thu: Contact for Information, Fri: Contact for Information, Sat: Contact for Information, Sun: Contact for Information",,,,,,,,,,,,,,,
Hackney Marshes Centre (ground floor),51.5520333,-0.0221375,Homerton Road,London,E9 5PF,0208 9867955,"Mon: 08:00 - 17:00, Tue: 08:00 - 17:00, Wed: 08:00 - 17:00, Thu: 08:00 - 17:00, Fri: 08:00 - 17:00, Sat: 08:00 - 17:00, Sun: 08:00 - 17:00",,,,,,,,,,,,,,,
Hackney Marshes Centre (first floor),51.5520333,-0.0221375,Homerton Road,London,E9 5PF,0208 9867955,"Mon: 08:00 - 17:00, Tue: 08:00 - 17:00, Wed: 08:00 - 17:00, Thu: 08:00 - 17:00, Fri: 08:00 - 17:00, Sat: 08:00 - 17:00, Sun: 08:00 - 17:00",,,,,,,,,,,,,,,
Hadrian Leisure Centre,54.9950422,-1.5183935,St Peters Road,North Tyneside,NE28 7LQ,0191 6432025,"Mon: 07:15 - 22:00, Tue: 07:15 - 22:00, Wed: 07:15 - 22:00, Thu: 07:15 - 22:00, Fri: 07:15 - 21:00, Sat: 08:15 - 18:00, Sun: 08:15 - 18:00",,,,,,,,,,,,,,,
Halewood Centre One Stop Shop,53.3589262,-2.8264314,Roseheath Drive,Knowsley,L26 9UH,0151 4896000,"Mon: 09:00 - 17:00, Tue: 09:00 - 17:00, Wed: 09:00 - 17:00, Thu: 09:00 - 17:00, Fri: 09:00 - 17:00, Sat: 10:00 - 12:30, Sun: Contact for Information",,,,,,,,,,,,,,,
Halifax Swimming Pool,53.7187288,-1.8602511,Skircoat Road,Halifax,HX1 2JN,0142 2366624,"Mon: 06:30 - 21:30, Tue: 06:30 - 21:30, Wed: 06:30 - 21:30, Thu: 06:30 - 21:30, Fri: 06:30 - 21:30, Sat: 07:30 - 18:00, Sun: 09:00 - 18:00",,,,,,,,,,,,,,,
Hamelin Trust,51.6320321,0.4130177,19 Radford Crescent,Billericay,CM12 0DU,0127 7653889,"Mon: 09:00 - 17:00, Tue: 09:00 - 17:00, Wed: 09:00 - 17:00, Thu: 09:00 - 17:00, Fri: 09:00 - 17:00, Sat: Contact for Information, Sun: Contact for Information",,,,,,,,,,,,,,,
Haregate Community Centre,53.1150472,-2.0078498,46 Queens Drive,Leek,ST13 6DJ,0153 8398378,"Mon: 09:00 - 17:00, Tue: 09:00 - 17:00, Wed: 09:00 - 17:00, Thu: 09:00 - 17:00, Fri: 09:00 - 17:00, Sat: 09:00 - 13:00, Sun: Contact for Information",,,,,,,,,,,,,,,
Harlow Bus Station,51.7699779,0.0957735,Terminus Street,Harlow,CM20 1XA,0127 9426349,"Mon: 08:30 - 17:00, Tue: 08:30 - 17:00, Wed: 08:30 - 17:00, Thu: 08:30 - 17:00, Fri: 08:30 - 17:00, Sat: 11:00 - 14:00, Sun: Contact for Information",,,,,,,,,,,,,,,
Harold Wood Polyclinic,51.5931757,0.2256843,The Drive off Gubbins Lane,Harold Wood,RM3 0FE,0170 8792000,"Mon: 08:00 - 20:00, Tue: 08:00 - 20:00, Wed: 08:00 - 20:00, Thu: 08:00 - 20:00, Fri: 08:00 - 20:00, Sat: 08:00 - 20:00, Sun: 08:00 - 20:00",,,,,,,,,,,,,,,
Harrogate Library & Customer Service Centre,53.9907298,-1.5378747,Victoria Avenue,Harrogate,HG1 1EG,0845 0349520,"Mon: 09:00 - 19:00, Tue: 09:00 - 19:00, Wed: 09:00 - 19:00, Thu: 10:00 - 18:00, Fri: 09:00 - 19:00, Sat: 09:00 - 16:00, Sun: Contact for Information",,,,,,,,,,,,,,,
Harrow College,51.6129603,-0.3392556,Harrow Weald Campus,Harrow,HA3 6RR,0208 9096461,"Mon: 09:00 - 17:00, Tue: 09:00 - 17:00, Wed: 09:00 - 17:00, Thu: 09:00 - 17:00, Fri: 09:00 - 17:00, Sat: Contact for Information, Sun: Contact for Information",,,,,,,,,,,,,,,
Harry Smith Complex,55.6734464,-3.770831,Thomas Taylor Avenue,Lanark,ML11 7DG,0155 5664419,"Mon: 08:45 - 15:45, Tue: 08:45 - 15:45, Wed: 08:45 - 15:45, Thu: 08:45 - 15:45, Fri: 08:45 - 15:45, Sat: Contact for Information, Sun: Contact for Information",,,,,,,,,,,,,,,
Hastings Adventure Playground,50.8705331,0.5947506,The Old Coachworks,Hastings,TN34 3PH,0142 4421201,"Mon: 15:30 - 18:30, Tue: 15:30 - 18:30, Wed: 15:30 - 18:30, Thu: 15:30 - 18:30, Fri: 15:30 - 18:30, Sat: Contact for Information, Sun: Contact for Information",,,,,,,,,,,,,,,
Hayridge (The),50.8543188,-3.3936196,"The Hayridge, Exeter Hill",Cullompton,EX15 1DJ,0139 2388400,"Mon: 08:30 - 18:00, Tue: 08:30 - 18:00, Wed: 08:30 - 18:00, Thu: 08:30 - 18:00, Fri: 08:30 - 18:00, Sat: 09:00 - 13:00, Sun: Contact for Information",,,,,,,,,,,,,,,
Headingley HEART,53.820475,-1.5785629,Bennett Road,Headingley,LS6 3HN,0113 2754548,"Mon: 09:00 - 23:00, Tue: 09:00 - 23:00, Wed: 09:00 - 23:00, Thu: 09:00 - 23:00, Fri: 09:00 - 23:00, Sat: Contact for Information, Sun: Contact for Information",,,,,,,,,,,,,,,
Heartlands,50.2210245,-5.2709677,Robinsons Shaft,Cornwall,TR15 3QY,0120 9722320,"Mon: 07:00 - 23:00, Tue: 07:00 - 23:00, Wed: 07:00 - 23:00, Thu: 07:00 - 23:00, Fri: 07:00 - 23:00, Sat: 07:00 - 23:00, Sun: 07:00 - 23:00",,,,,,,,,,,,,,,
Heathrow Airport Terminal 5,51.4713012,-0.4878265,Gate Seating Level 20,London,TW6 2GA,0844 3351801,"Mon: 05:00 - 22:00, Tue: 05:00 - 22:00, Wed: 05:00 - 22:00, Thu: 05:00 - 22:00, Fri: 05:00 - 22:00, Sat: 05:00 - 22:00, Sun: 05:00 - 22:00",,,,,,,,,,,,,,,
Heathrow Airport Terminal 2,51.4697076,-0.4518416,Gate 18 Arrivals,London,TW6 1EW,0844 3351801,"Mon: Contact for Information, Tue: Contact for Information, Wed: Contact for Information, Thu: Contact for Information, Fri: Contact for Information, Sat: Contact for Information, Sun: Contact for Information",,,,,,,,,,,,,,,
Heely City Farm,53.3629424,-1.4683001,Richards Road,Sheffield,S2 3DT,0114 2580482,"Mon: 09:00 - 17:00, Tue: 09:00 - 17:00, Wed: 09:00 - 17:00, Thu: 09:00 - 17:00, Fri: 09:00 - 17:00, Sat: 09:00 - 17:00, Sun: 09:00 - 17:00",,,,,,,,,,,,,,,
Henshaw Arts and Craft Centre,54.010932,-1.472612,Bond End,Knaresborough,HG5 9AL,0142 3541888,"Mon: 10:00 - 16:00, Tue: 10:00 - 16:00, Wed: 10:00 - 16:00, Thu: 10:00 - 16:00, Fri: 10:00 - 16:00, Sat: Contact for Information, Sun: Contact for Information",,,,,,,,,,,,,,,
Hereford Leisure Centre,52.0506827,-2.7175332,St. Martin's Avenue,Hereford,HR2 7RQ,0845 2412562,"Mon: 07:00 - 21:30, Tue: 07:00 - 21:30, Wed: 07:00 - 21:30, Thu: 07:00 - 21:30, Fri: 07:00 - 21:30, Sat: 08:00 - 17:00, Sun: 08:00 - 17:00",,,,,,,,,,,,,,,
Old Hereford Market - Shopping Centre,52.0580748,-2.7175365,Newmarket Street,Hereford,HR4 9HR,0143 2264109,"Mon: 09:30 - 20:00, Tue: 09:30 - 20:00, Wed: 09:30 - 20:00, Thu: 09:30 - 20:00, Fri: 09:30 - 20:00, Sat: 09:00 - 18:00, Sun: 11:00 - 17:00",,,,,,,,,,,,,,,
Heworth Leisure centre,54.9470247,-1.5518129,High Lanes,Gateshead,NE10 0PD,0191 4335715,"Mon: 07:00 - 22:00, Tue: 07:00 - 22:00, Wed: 07:00 - 22:00, Thu: 07:00 - 22:00, Fri: 07:00 - 22:00, Sat: 08:30 - 16:00, Sun: 08:30 - 16:00",,,,,,,,,,,,,,,
HFT Head Office,51.5047653,-2.484122,5/6 Brook Office Park,Bristol,BS16 7FL,0117 9061700,"Mon: 09:00 - 17:00, Tue: 09:00 - 17:00, Wed: 09:00 - 17:00, Thu: 09:00 - 17:00, Fri: 09:00 - 17:00, Sat: Contact for Information, Sun: Contact for Information",,,,,,,,,,,,,,,
HFT Kingston Resource Centre,51.4016379,-0.2730686,Springfield Road,New Malden,KT3 3LJ,0208 9429769,"Mon: 09:30 - 16:00, Tue: 09:30 - 16:00, Wed: 09:30 - 16:00, Thu: 09:30 - 16:00, Fri: 09:30 - 16:00, Sat: Contact for Information, Sun: Contact for Information",,,,,,,,,,,,,,,
HFT Resource Centre,52.174739,-1.8562826,7 Waterloo Road,Bidford-on-Avon,B50 4JP,0178 9772141,"Mon: 09:00 - 17:00, Tue: 09:00 - 17:00, Wed: 09:00 - 17:00, Thu: 09:00 - 17:00, Fri: 09:00 - 17:00, Sat: Contact for Information, Sun: Contact for Information",,,,,,,,,,,,,,,
Highcross Shopping Centre,52.6358383,-1.137489,5 Shires Lane,Leicester,LE1 4AN,0116 2428644,"Mon: 09:30 - 22:00, Tue: 09:30 - 22:00, Wed: 09:30 - 22:00, Thu: 09:30 - 22:00, Fri: 09:30 - 22:00, Sat: 09:00 - 19:00, Sun: 11:00 - 17:00",,,,,,,,,,,,,,,
Highgrove Pool,51.5803735,-0.410642,Hume Way,Ruislip,HA4 8DZ,0819 5630753,"Mon: 06:30 - 22:00, Tue: 06:30 - 22:00, Wed: 06:30 - 22:00, Thu: 06:30 - 22:00, Fri: 06:30 - 22:00, Sat: 08:00 - 17:30, Sun: 08:00 - 17:30",,,,,,,,,,,,,,,
Hillworth Park,51.346739,-1.9940617,Queens Road,Devizes,SN10 5HR,,"Mon: Contact for Information, Tue: Contact for Information, Wed: Contact for Information, Thu: Contact for Information, Fri: Contact for Information, Sat: Contact for Information, Sun: Contact for Information",,,,,,,,,,,,,,,
Hive (The),52.1939054,-2.2258151,Sawmill Walk,Worcester,WR1 3PB,0190 5822866,"Mon: 08:30 - 22:00, Tue: 08:30 - 22:00, Wed: 08:30 - 22:00, Thu: 08:30 - 22:00, Fri: 08:30 - 22:00, Sat: 08:30 - 22:00, Sun: 08:30 - 22:00",,,,,,,,,,,,,,,
Holt Park Active 1,53.8582253,-1.612066,Holtdale Approach,Leeds,LS156 7R,0113 3781301,"Mon: 07:00 - 22:00, Tue: 07:00 - 22:00, Wed: 07:00 - 22:00, Thu: 07:00 - 22:00, Fri: 07:00 - 22:00, Sat: 08:00 - 18:30, Sun: 08:00 - 20:00",,,,,,,,,,,,,,,
Holt Park Avenue 2,53.856443,-1.6079952,Holtdale Approach,Leeds,LS16 7RX,0113 3781301,"Mon: 07:00 - 22:00, Tue: 07:00 - 22:00, Wed: 07:00 - 22:00, Thu: 07:00 - 22:00, Fri: 07:00 - 22:00, Sat: 08:00 - 18:30, Sun: 08:00 - 20:00",,,,,,,,,,,,,,,
Horncastle Swimming Pool,53.2061337,-0.1207108,Coronation Walk,Horncastle,LN9 6HP,0150 7522489,"Mon: Contact for Information, Tue: Contact for Information, Wed: Contact for Information, Thu: Contact for Information, Fri: 07:00 - 20:00, Sat: 07:00 - 16:00, Sun: 07:00 - 16:00",,,,,,,,,,,,,,,
Houses of Parliament,51.4998403,-0.1246627,London,,SW1A 0AA,0207 2194266,"Mon: Contact for Information, Tue: Contact for Information, Wed: Contact for Information, Thu: Contact for Information, Fri: Contact for Information, Sat: Contact for Information, Sun: Contact for Information",,,,,,,,,,,,,,,
Howdon Library and Family Learning Centre,54.9969396,-1.5034199,Churchill Street,Howdon,NE28 7TG,0191 6432070,"Mon: 09:00 - 17:30, Tue: 09:00 - 19:00, Wed: 09:00 - 17:30, Thu: 09:00 - 19:00, Fri: 09:00 - 17:30, Sat: 09:00 - 17:00, Sun: Contact for Information",,,,,,,,,,,,,,,
Hoyland Centre (The),53.4994175,-1.437951,High Croft,Hoyland,S74 9AF,0122 6774621,"Mon: 09:00 - 17:00, Tue: 09:00 - 17:00, Wed: 09:00 - 17:00, Thu: 09:00 - 17:00, Fri: 09:00 - 17:00, Sat: 09:00 - 12:00, Sun: 09:00 - 12:00",,,,,,,,,,,,,,,
Hub (The),53.1051822,-1.3434112,Shiners Way,South Normanton,DE55 2AA,0162 9535000,"Mon: 08:00 - 18:00, Tue: 08:00 - 18:00, Wed: 08:00 - 18:00, Thu: 08:00 - 18:00, Fri: 08:00 - 18:00, Sat: 09:00 - 12:00, Sun: 09:00 - 12:00",,,,,,,,,,,,,,,
Huddersfield Town Hall,53.644208,-1.782567,Ramsdon Street,Huddersfield,HO1 2TA,0148 4223200,"Mon: 08:00 - 19:00, Tue: 08:00 - 19:00, Wed: 08:00 - 19:00, Thu: 08:00 - 19:00, Fri: 08:00 - 19:00, Sat: Contact for Information, Sun: Contact for Information",,,,,,,,,,,,,,,
Huyton Municipal Buildings One Stop Shop,53.4115618,-2.8406951,Archway Road,Knowsley,L36 9YU,0151 4896000,"Mon: 09:00 - 17:00, Tue: 09:00 - 17:00, Wed: 09:00 - 17:00, Thu: 09:00 - 17:00, Fri: 09:00 - 17:00, Sat: 10:00 - 12:30, Sun: 10:00 - 12:30",,,,,,,,,,,,,,,
Hylands Park Estate,51.7174699,0.4515473,London Road,Chelmsford,CM2 8WG,0124 5605500,"Mon: 09:30 - 15:00, Tue: 09:30 - 15:00, Wed: 09:30 - 15:00, Thu: 09:30 - 15:00, Fri: 09:30 - 15:00, Sat: 10:00 - 16:00, Sun: 10:00 - 16:00",,,,,,,,,,,,,,,
Hyndburn Leisure Centre,53.7545561,-2.3877319,Henry Street,Accrington,BB5 4EP,0125 4385945,"Mon: 07:15 - 22:00, Tue: 07:15 - 22:00, Wed: 07:15 - 22:00, Thu: 07:15 - 22:00, Fri: 07:15 - 22:00, Sat: 09:00 - 17:00, Sun: 09:00 - 17:00",,,,,,,,,,,,,,,
IKEA,55.8803804,-3.1683881,Straiton Road,Loanhead,EH20 9PW,0845 3552265,"Mon: 10:00 - 21:00, Tue: 10:00 - 21:00, Wed: 10:00 - 21:00, Thu: 10:00 - 21:00, Fri: 10:00 - 21:00, Sat: 10:00 - 19:00, Sun: 10:00 - 19:00",,,,,,,,,,,,,,,
Ilkley Pool Lido,53.9317379,-1.8074843,Denton Road,Ilkley,LS29 0BZ,0194 3600453,"Mon: 07:00 - 22:00, Tue: 08:30 - 22:30, Wed: 07:00 - 22:00, Thu: 08:30 - 22:00, Fri: 07:00 - 21:00, Sat: 08:00 - 16:00, Sun: 08:30 - 14:00",,,,,,,,,,,,,,,
"Immingham Town Council, Civic Offices",53.6155612,-0.2114945,Pelham Road,Immingham,DN40 1QF,0146 9572763,"Mon: 08:00 - 17:00, Tue: 08:00 - 17:00, Wed: 08:00 - 17:00, Thu: 08:00 - 17:00, Fri: 08:00 - 17:00, Sat: 08:00 - 17:00, Sun: Contact for Information",,,,,,,,,,,,,,,
intu Victoria Centre,52.9568867,-1.1472268,222 Victoria Centre,Nottingham,NG1 3QN,0115 9121111,"Mon: 09:00 - 18:00, Tue: 09:00 - 18:00, Wed: 09:00 - 19:30, Thu: 09:00 - 18:00, Fri: 09:00 - 18:00, Sat: 09:00 - 19:00, Sun: 11:00 - 17:00",,,,,,,,,,,,,,,
Inverness College,57.4850109,-4.2226018,3 Longman Road,Inverness,IV1 1SA,0146 3273000,"Mon: 08:00 - 19:00, Tue: 08:00 - 19:00, Wed: 08:00 - 19:00, Thu: 08:00 - 19:00, Fri: 08:00 - 19:00, Sat: Contact for Information, Sun: Contact for Information",,,,,,,,,,,,,,,
Ironstone Centre (The),53.5921937,-0.6525432,West Street,Scunthorpe,DN15 6HX,0172 4292099,"Mon: 08:00 - 20:00, Tue: 08:00 - 20:00, Wed: 08:00 - 21:00, Thu: 08:00 - 20:00, Fri: 08:00 - 20:00, Sat: 08:00 - 20:00, Sun: Contact for Information",,,,,,,,,,,,,,,
Isla Money Community Centre,55.7722689,-3.9652243,Muirhouse Road,Motherwell,ML1 2LT,0169 8263615,"Mon: 09:00 - 21:30, Tue: 09:00 - 21:30, Wed: 09:00 - 21:30, Thu: 09:00 - 21:30, Fri: 09:00 - 14:30, Sat: Contact for Information, Sun: Contact for Information",,,,,,,,,,,,,,,
James Cook University Hospital,54.5522997,-1.2105689,Marton Road,Middlesbrough,TS4 3BW,0164 2850850,"Mon: 00:00 - 23:59, Tue: 00:00 - 23:59, Wed: 00:00 - 23:59, Thu: 00:00 - 23:59, Fri: 00:00 - 23:59, Sat: 00:00 - 23:59, Sun: 00:00 - 23:59",,,,,,,,,,,,,,,
John Charles Centre for Sport,53.7644251,-1.543987,Middleton Grove,Leeds,LS11 5DJ,0113 3950000,"Mon: 07:00 - 21:30, Tue: 07:00 - 21:00, Wed: 07:00 - 20:30, Thu: 07:00 - 21:30, Fri: 07:00 - 20:30, Sat: 07:30 - 17:30, Sun: 09:00 - 16:00",,,,,,,,,,,,,,,
Jubilee Lodge,53.9512609,-2.0254847,Carleton Road,Skipton,BD23 2BE,0175 6700720,"Mon: 10:00 - 17:00, Tue: 10:00 - 17:00, Wed: 10:00 - 17:00, Thu: 10:00 - 17:00, Fri: 10:00 - 17:00, Sat: 10:00 - 17:00, Sun: 10:00 - 17:00",,,,,,,,,,,,,,,
Jubilee 2 (Suite),53.0125746,-2.2213262,Brunswick Street,Newcastle-under-Lyme,ST5 2AG,0178 2616606,"Mon: 06:30 - 22:00, Tue: 06:30 - 22:00, Wed: 06:30 - 22:00, Thu: 06:30 - 22:00, Fri: 06:30 - 22:00, Sat: 08:00 - 20:00, Sun: 08:00 - 20:00",,,,,,,,,,,,,,,
Jubilee2 (Changing),53.0125746,-2.2213262,Brunswick Street,Newcastle-under-Lyme,ST5 2AG,0178 2616606,"Mon: 06:30 - 22:00, Tue: 06:30 - 22:00, Wed: 06:30 - 22:00, Thu: 06:30 - 22:00, Fri: 06:30 - 22:00, Sat: 08:00 - 20:00, Sun: 08:00 - 20:00",,,,,,,,,,,,,,,
Junction 32 Outlet Shopping Village,53.7110501,-1.3405892,Tomahawk Trail,Glasshoughton,WF10 4FR,0197 7520153,"Mon: 10:00 - 20:00, Tue: 10:00 - 20:00, Wed: 10:00 - 20:00, Thu: 10:00 - 20:00, Fri: 10:00 - 20:00, Sat: 10:00 - 18:00, Sun: 11:00 - 17:00",,,,,,,,,,,,,,,
Keighley Leisure Centre,53.8710691,-1.9045295,Lawkholme Lane,Keighley,BD21 3JN,0153 5681763,"Mon: 09:00 - 22:00, Tue: 09:00 - 22:00, Wed: 09:00 - 22:00, Thu: 09:00 - 22:00, Fri: 09:00 - 22:00, Sat: 09:00 - 18:00, Sun: 09:00 - 18:00",,,,,,,,,,,,,,,
Ken Martin Leisure Centre,53.0084153,-1.1917398,Hucknall Lane,Bulwell,NG6 8AP,0115 9151555,"Mon: 09:00 - 22:00, Tue: 07:30 - 22:00, Wed: 07:30 - 22:00, Thu: 08:00 - 22:00, Fri: 08:00 - 20:00, Sat: 08:30 - 17:00, Sun: 09:00 - 18:00",,,,,,,,,,,,,,,
Kennet Shopping Centre,51.3990346,-1.323977,Market Street,Newbury,RG14 5EN,0163 5407480,"Mon: Contact for Information, Tue: Contact for Information, Wed: Contact for Information, Thu: Contact for Information, Fri: Contact for Information, Sat: Contact for Information, Sun: 10:00 - 17:00",,,,,,,,,,,,,,,
Kew Gardens,51.4836507,-0.2897468,Royal Botanic Gardens,"Richmond,",TW9 3AB,0208 3325655,"Mon: Contact for Information, Tue: Contact for Information, Wed: Contact for Information, Thu: Contact for Information, Fri: Contact for Information, Sat: Contact for Information, Sun: Contact for Information",,,,,,,,,,,,,,,
Keynsham Leisure Centre,51.4130216,-2.4974062,Temple Street,Keynsham,BS31 1HE,0122 5395164,"Mon: 06:30 - 22:30, Tue: 06:30 - 22:30, Wed: 06:30 - 22:30, Thu: 06:30 - 22:30, Fri: 06:30 - 22:30, Sat: 08:00 - 19:30, Sun: 08:00 - 21:30",,,,,,,,,,,,,,,
Kincorth Sports Centre,57.12356,-2.1028841,Corthan Crescent,Aberdeen,AB12 5BB,0122 4879759,"Mon: 09:00 - 22:00, Tue: 09:00 - 22:00, Wed: 09:00 - 22:00, Thu: 09:00 - 22:00, Fri: 09:00 - 22:00, Sat: 09:00 - 21:00, Sun: 09:00 - 21:00",,,,,,,,,,,,,,,
Kingfisher Place,53.7751946,-1.1228759,North Yorkshire County Council,Selby,YO8 4AL,0160 9535635,"Mon: 08:30 - 17:00, Tue: 08:30 - 17:00, Wed: 08:30 - 17:00, Thu: 08:30 - 17:00, Fri: 08:30 - 17:00, Sat: Contact for Information, Sun: Contact for Information",,,,,,,,,,,,,,,
King's Cross Railway Station,51.5321816,-0.1238712,Euston Road,London,N1C 4AP,0751 5624996,"Mon: 05:00 - 01:40, Tue: 05:00 - 01:40, Wed: 05:00 - 01:40, Thu: 05:00 - 01:40, Fri: 05:00 - 01:40, Sat: 05:00 - 01:15, Sun: 05:30 - 13:40",,,,,,,,,,,,,,,
"Kingswood Civic Centre, One Stop Shop",51.4621443,-2.5010246,High Street,Kingswood,BS15 9TR,0145 4863101,"Mon: 08:45 - 17:00, Tue: 08:45 - 17:01, Wed: 08:45 - 17:02, Thu: 08:45 - 16:30, Fri: 08:45 - 16:30, Sat: Contact for Information, Sun: Contact for Information",,,,,,,,,,,,,,,
Kinson Hub (The),50.7690024,-1.901652,"Wimborne Road,",Kinson,BH11 9AW,0120 2451915,"Mon: 10:00 - 19:00, Tue: 09:30 - 19:00, Wed: 09:30 - 17:00, Thu: 09:30 - 19:00, Fri: 09:30 - 19:00, Sat: 10:00 - 16:00, Sun: Contact for Information",,,,,,,,,,,,,,,
Kirkcaldy Leisure Centre (Wet),56.1109744,-3.1565285,Esplanade,Kirkcaldy,KY1 1HR,0159 2583306,"Mon: 06:30 - 22:00, Tue: 06:30 - 22:00, Wed: 06:30 - 22:00, Thu: 06:30 - 22:00, Fri: 06:30 - 22:00, Sat: 08:00 - 18:00, Sun: 08:00 - 18:00",,,,,,,,,,,,,,,
Kirkcaldy Art Gallery & Museum,56.1123121,-3.1658067,War Memorial Gardens,Kirkcaldy,KY1 1YG,0159 2583213,"Mon: 12:00 - 19:00, Tue: 09:30 - 19:00, Wed: 09:30 - 17:00, Thu: 09:30 - 19:00, Fri: 09:30 - 17:00, Sat: 09:30 - 16:00, Sun: 12:00 - 16:00",,,,,,,,,,,,,,,
Kirkcaldy Town House,56.1101202,-3.1622634,2 Wemyssfield,Kirkcaldy,KY1 1XW,0345 1550000,"Mon: 07:00 - 20:00, Tue: 07:00 - 20:00, Wed: 07:00 - 20:00, Thu: 07:00 - 20:00, Fri: 07:00 - 20:00, Sat: Contact for Information, Sun: Contact for Information",,,,,,,,,,,,,,,
Kirkwall Travel Centre,58.9828983,-2.9617982,The Travel Centre,Orkney,KW15 1GU,0185 6872856,"Mon: Contact for Information, Tue: Contact for Information, Wed: Contact for Information, Thu: Contact for Information, Fri: Contact for Information, Sat: 10:00 - 16:00, Sun: 10:00 - 16:00",,,,,,,,,,,,,,,
Knaresborough Swimming Pool,54.0052523,-1.4620782,King James Road,Knaresborough,HG5 8EB,0142 3860011,"Mon: 07:30 - 21:00, Tue: 07:30 - 21:00, Wed: 07:30 - 21:00, Thu: 07:30 - 21:00, Fri: 07:30 - 21:00, Sat: 07:30 - 19:30, Sun: 07:30 - 19:30",,,,,,,,,,,,,,,
Knowsley Leisure & Culture Park,53.4147717,-2.8244987,Longview Drive,Huyton,L36 6EG,0151 4432200,"Mon: 06:00 - 22:00, Tue: 06:00 - 22:00, Wed: 06:00 - 22:00, Thu: 06:00 - 22:00, Fri: 06:30 - 21:00, Sat: 09:00 - 19:00, Sun: 09:00 - 22:00",,,,,,,,,,,,,,,
Lady Place Car Park,51.1471739,-0.9781429,Lady Place Car Park,Alton,GU34 1EN,0173 0234247,"Mon: 06:00 - 22:00, Tue: 06:00 - 22:00, Wed: 06:00 - 22:00, Thu: 06:00 - 22:00, Fri: 06:00 - 22:00, Sat: 06:00 - 22:00, Sun: 06:00 - 22:00",,,,,,,,,,,,,,,
Larches Day Centre,51.3359142,-0.2676245,44 Waterloo Road,Epsom,KT19 8EX,0148 3806806,"Mon: 09:00 - 16:00, Tue: 09:00 - 16:00, Wed: 09:00 - 16:00, Thu: 09:00 - 16:00, Fri: 09:00 - 16:00, Sat: Contact for Information, Sun: Contact for Information",,,,,,,,,,,,,,,
LC Leisure Centre,51.6175264,-3.9409884,Oystermouth Road,Swansea,SA1 3ST,0179 2466500,"Mon: 06:30 - 22:00, Tue: 06:30 - 22:00, Wed: 06:30 - 22:00, Thu: 06:30 - 22:00, Fri: 06:30 - 22:00, Sat: 08:00 - 21:00, Sun: 08:00 - 21:00",,,,,,,,,,,,,,,
Leasowe Leisure Centre,53.4143803,-3.0963787,Twickenham Drive,Wirral,CH46 1PF,0151 6664172,"Mon: 07:30 - 22:00, Tue: 07:30 - 22:00, Wed: 07:30 - 22:00, Thu: 07:30 - 22:00, Fri: 07:30 - 22:00, Sat: 09:00 - 20:00, Sun: 09:00 - 20:00",,,,,,,,,,,,,,,
Leechmere Centre,54.8799356,-1.3722189,Carremere Road,Sunderland,SR2 9TQ,0191 5205000,"Mon: 08:30 - 17:00, Tue: 08:30 - 17:00, Wed: 08:30 - 17:00, Thu: 08:30 - 17:00, Fri: 08:30 - 17:00, Sat: Contact for Information, Sun: Contact for Information",,,,,,,,,,,,,,,
Leeds Bradford Airport,53.8692182,-1.6596176,Whitehouse Lane,Leeds,LS19 7TU,0871 2882288,"Mon: Contact for Information, Tue: Contact for Information, Wed: Contact for Information, Thu: Contact for Information, Fri: Contact for Information, Sat: Contact for Information, Sun: Contact for Information",,,,,,,,,,,,,,,
Leicestershire Centre for Integrated Living,52.6330828,-1.1491951,The West End Centre,Leicester,LE3 5PA,0116 2225005,"Mon: 09:00 - 16:00, Tue: 09:00 - 16:00, Wed: 09:00 - 16:00, Thu: 09:00 - 16:00, Fri: 09:00 - 16:00, Sat: Contact for Information, Sun: Contact for Information",,,,,,,,,,,,,,,
Leigh Sports Village,53.4895967,-2.5302243,Leigh Sports Stadium,Leigh,WN7 4JY,0194 2487865,"Mon: 09:00 - 16:30, Tue: 09:00 - 16:30, Wed: 09:00 - 16:30, Thu: 09:00 - 16:30, Fri: 09:00 - 16:30, Sat: Contact for Information, Sun: Contact for Information",,,,,,,,,,,,,,,
Leighton Hospital,53.1111493,-2.4816246,Middlewich Road,Crewe,CW1 4QJ,0127 0255141,"Mon: 00:00 - 23:59, Tue: 00:00 - 23:59, Wed: 00:00 - 23:59, Thu: 00:00 - 23:59, Fri: 00:00 - 23:59, Sat: Contact for Information, Sun: Contact for Information",,,,,,,,,,,,,,,
Leisure Bowl (The),56.1178937,-3.7934253,Parkway,Alloa,FK10 2AT,0125 9723527,"Mon: 09:00 - 22:00, Tue: 09:00 - 22:00, Wed: 09:00 - 22:00, Thu: 09:00 - 22:00, Fri: 09:00 - 22:00, Sat: 09:00 - 18:00, Sun: 09:00 - 21:00",,,,,,,,,,,,,,,
Leisure World Colchester,51.8976846,0.9038885,Cowdray Avenue,Colchester,CO1 1YH,0120 6282000,"Mon: 06:00 - 22:15, Tue: 06:00 - 22:30, Wed: 06:00 - 22:30, Thu: 06:00 - 22:30, Fri: 06:00 - 22:15, Sat: 06:00 - 21:00, Sun: 08:00 - 20:00",,,,,,,,,,,,,,,
Leominster,52.2241114,-2.7381385,Coningsby Road,Leominster,R6 8LL,0300 0121222,"Mon: 07:15 - 22:00, Tue: 07:00 - 22:00, Wed: 07:15 - 22:00, Thu: 07:15 - 22:00, Fri: 07:15 - 22:00, Sat: 09:00 - 18:00, Sun: 09:00 - 21:00",,,,,,,,,,,,,,,
Lescudjack Centre (The),50.1259633,-5.5390668,Penmere Close,Penzance,TR18 3PE,0173 6334850,"Mon: 09:00 - 17:00, Tue: 09:00 - 17:00, Wed: 09:00 - 17:00, Thu: 09:00 - 17:00, Fri: 09:00 - 17:00, Sat: Contact for Information, Sun: Contact for Information",,,,,,,,,,,,,,,
Level (The),50.8293091,-0.1351632,St.Peter's Place,Brighton,BN1 4SA,0127 3292929,"Mon: Contact for Information, Tue: Contact for Information, Wed: Contact for Information, Thu: Contact for Information, Fri: Contact for Information, Sat: Contact for Information, Sun: Contact for Information",,,,,,,,,,,,,,,
Genting Arena,52.451054,-1.725112,The NEC,Birmingham,B40 1NT,0121 7804141,"Mon: Contact for Information, Tue: Contact for Information, Wed: Contact for Information, Thu: Contact for Information, Fri: Contact for Information, Sat: Contact for Information, Sun: Contact for Information",,,,,,,,,,,,,,,
Library of Birmingham,52.4782557,-1.9099031,Broad Street,Birmingham,B1 2ND,0121 3034511,"Mon: 08:00 - 20:00, Tue: 08:00 - 20:00, Wed: 08:00 - 20:00, Thu: 08:00 - 20:00, Fri: 08:00 - 20:00, Sat: 09:00 - 17:00, Sun: 11:00 - 16:00",,,,,,,,,,,,,,,
Lilybank Resource Centre,56.6446658,-2.8724855,Arbroath Road,Forfar,DD8 2JJ,0130 7466788,"Mon: 09:00 - 16:00, Tue: 09:00 - 16:00, Wed: 09:00 - 16:00, Thu: 09:00 - 16:00, Fri: 09:00 - 16:00, Sat: Contact for Information, Sun: Contact for Information",,,,,,,,,,,,,,,
Link Centre (The),51.5559618,-1.8379567,Whitehall Way,Swindon,SN5 7DL,0179 3877323,"Mon: 07:30 - 22:00, Tue: 07:30 - 22:00, Wed: 07:30 - 22:00, Thu: 07:30 - 22:00, Fri: 08:00 - 22:00, Sat: 08:00 - 22:00, Sun: 08:00 - 18:30",,,,,,,,,,,,,,,
Lisburn Civic Centre,54.5114725,-6.0347795,Lagan Valley Island,Lisburn,BT27 4RL,0289 2509292,"Mon: 07:30 - 22:00, Tue: 07:30 - 22:00, Wed: 07:30 - 22:00, Thu: 07:30 - 22:00, Fri: 07:30 - 22:00, Sat: 07:30 - 22:00, Sun: Contact for Information",,,,,,,,,,,,,,,
Liverpool Central Library,53.4094124,-2.9803518,William Brown Street,Liverpool,L3 8EN,0151 2335835,"Mon: 09:00 - 20:00, Tue: 09:00 - 20:00, Wed: 09:00 - 20:00, Thu: 09:00 - 20:00, Fri: 09:00 - 20:00, Sat: 09:00 - 17:00, Sun: 10:00 - 17:00",,,,,,,,,,,,,,,
Liverpool FC Anfield,53.4308294,-2.96083,Anfield Stadium,Anfield Road,L4 0TH,0151 2606677,"Mon: Contact for Information, Tue: Contact for Information, Wed: Contact for Information, Thu: Contact for Information, Fri: Contact for Information, Sat: Contact for Information, Sun: Contact for Information",,,,,,,,,,,,,,,
Liverpool One Centre,53.4039584,-2.9861663,Wall Street,Liverpool,L1 8JQ,0151 2323100,"Mon: 09:30 - 20:00, Tue: 09:30 - 20:00, Wed: 09:30 - 20:00, Thu: 09:30 - 20:00, Fri: 09:30 - 20:00, Sat: 09:30 - 19:00, Sun: 10:00 - 17:00",,,,,,,,,,,,,,,
Llandudno Station,53.3206646,-3.8271965,Augusta Street,Llandudno,LL30 2AF,0845 3003005,"Mon: 08:30 - 15:00, Tue: 08:30 - 15:00, Wed: 08:30 - 15:00, Thu: 08:30 - 15:00, Fri: 08:30 - 15:00, Sat: Contact for Information, Sun: Contact for Information",,,,,,,,,,,,,,,
Llangollen Pavilion (inside venue),52.976648,-3.1784105,Abbey Road,Llangollen,LL20 8SW,0197 8860111,"Mon: Contact for Information, Tue: Contact for Information, Wed: Contact for Information, Thu: Contact for Information, Fri: Contact for Information, Sat: Contact for Information, Sun: Contact for Information",,,,,,,,,,,,,,,
Llangollen Pavilion (outside venue),52.976648,-3.1784105,Abbey Road,Llangollen,LL20 8SW,0197 8860111,"Mon: Contact for Information, Tue: Contact for Information, Wed: Contact for Information, Thu: Contact for Information, Fri: Contact for Information, Sat: Contact for Information, Sun: Contact for Information",,,,,,,,,,,,,,,
Lochlands Adult Resource Centre (ground floor),56.5656276,-2.6014706,Cairnie Road,Arbroath,DD11 3DY,0124 1430027,"Mon: 08:45 - 16:00, Tue: 08:45 - 16:00, Wed: 08:45 - 16:00, Thu: 08:45 - 16:00, Fri: 08:45 - 16:00, Sat: Contact for Information, Sun: Contact for Information",,,,,,,,,,,,,,,
Lochlands Adult Resource Centre (first floor),56.5656158,-2.6014813,Cairnie Road,Arbroath,DD11 3DY,0124 1430027,"Mon: 08:45 - 16:00, Tue: 08:45 - 16:00, Wed: 08:45 - 16:00, Thu: 08:45 - 16:00, Fri: 08:45 - 16:00, Sat: Contact for Information, Sun: Contact for Information",,,,,,,,,,,,,,,
Lochore Meadows Outdoor Education Centre,56.148978,-3.3305757,Crosshill,Lochgelly,KY5 8BA,0159 2583388,"Mon: 09:00 - 17:00, Tue: 09:00 - 17:00, Wed: 09:00 - 17:00, Thu: 09:00 - 17:00, Fri: 09:00 - 17:00, Sat: 09:00 - 17:00, Sun: 09:00 - 17:00",,,,,,,,,,,,,,,
London Design Outlet,51.5573029,-0.284398,Wembley Shopping Centre,Wembley,HA9 0PA,0208 9125210,"Mon: 09:00 - 23:00, Tue: 09:00 - 23:00, Wed: 09:00 - 23:00, Thu: 09:00 - 23:00, Fri: 09:00 - 23:00, Sat: 09:00 - 23:00, Sun: 09:00 - 23:00",,,,,,,,,,,,,,,
London Road HQ,55.6057197,-4.4787552,London Road,Kilmarnock,KA3 7BU,0156 3576000,"Mon: 09:00 - 17:00, Tue: 09:00 - 17:00, Wed: 09:00 - 17:00, Thu: 09:00 - 17:00, Fri: 09:00 - 17:00, Sat: Contact for Information, Sun: Contact for Information",,,,,,,,,,,,,,,
Look Out Discovery Centre,51.3879759,-0.7410916,Nine Mile Ride,Bracknell,RG12 7QW,0134 4354400,"Mon: 10:00 - 17:00, Tue: 10:00 - 17:00, Wed: 10:00 - 17:00, Thu: 10:00 - 17:00, Fri: Contact for Information, Sat: 10:00 - 17:00, Sun: 10:00 - 17:00",,,,,,,,,,,,,,,
Lord Butler Fitness and Leisure,52.0156273,0.251273,Peasland Road,Saffron Waldon,CB113EG,0179 9522777,"Mon: 06:00 - 22:00, Tue: 06:00 - 22:00, Wed: 06:00 - 22:00, Thu: 06:00 - 22:00, Fri: 06:00 - 22:00, Sat: Contact for Information, Sun: Contact for Information",,,,,,,,,,,,,,,
Lotherton Hall,53.8242859,-1.3279437,Lotherton Lane,Aberford,LS25 3EB,0113 3782959,"Mon: 10:00 - 16:00, Tue: 10:00 - 16:00, Wed: 10:00 - 16:00, Thu: 10:00 - 16:00, Fri: 10:00 - 16:00, Sat: 10:00 - 16:00, Sun: 10:00 - 16:00",,,,,,,,,,,,,,,
Loughborough Library and Learning Centre,52.7706316,-1.209072,Granby Street,Loughborough,LE11 3DZ,0116 3052420,"Mon: 09:30 - 19:00, Tue: 09:30 - 17:00, Wed: Contact for Information, Thu: 09:30 - 17:00, Fri: 09:30 - 17:00, Sat: 10:00 - 16:00, Sun: 12:00 - 16:00",,,,,,,,,,,,,,,
Louisa Centre,54.8800535,-1.757142,Front Street,Stanley,DH9 0TE,0120 7218877,"Mon: 07:00 - 22:30, Tue: 07:00 - 22:30, Wed: 07:00 - 22:30, Thu: 07:00 - 22:30, Fri: 07:00 - 21:30, Sat: 08:00 - 17:00, Sun: 08:00 - 20:00",,,,,,,,,,,,,,,
Lower Gardens Public Toilets,50.7191293,-1.8794257,Lower Pleasure Gardens,Bournemouth,BH1 2AQ,0120 2451199,"Mon: Contact for Information, Tue: Contact for Information, Wed: Contact for Information, Thu: Contact for Information, Fri: Contact for Information, Sat: Contact for Information, Sun: Contact for Information",,,,,,,,,,,,,,,
Lynebank Wheelchair Clinic,56.0780896,-3.413136,Lynebank Hospital,Dunfermline,KY11 4UW,0138 3623623,"Mon: 09:00 - 17:00, Tue: 09:00 - 17:00, Wed: 09:00 - 17:00, Thu: 09:00 - 17:00, Fri: 09:00 - 17:00, Sat: Contact for Information, Sun: Contact for Information",,,,,,,,,,,,,,,
